[{"showID":100,"dateShow":"2024-12-28T19:30:00","dateDoors":"2024-12-28T18:30:00","dateLots":"","timeZone":"America/New_York","venue":"Madison Square Garden","altName":"New York","notes":"Capacity: 20,879","address":"4 Pennsylvania Plaza","city":"New York","state":"NY","postal":"10001","country":"USA","phoneNbr":"212-465-6741","venueURL":"https://www.msg.com/madison-square-garden","setlistURL":"http://phish.net/setlists/?d=2024-12-28","seatingURL":"https://maps.ticketmaster.com/maps/geometry/3/event/3B005E4BCF2417EE/staticImage?type=png&systemId=HOST","lat":"0.0","lng":"0.0","confidence":"0","placesPhotoReference":"","placesID":"","dateString":"28","monthString":"Dec","title":"Sat, Dec 28","YYYYMMDD":"20241228"},{"showID":101,"dateShow":"2024-12-29T19:30:00","dateDoors":"2024-12-29T18:30:00","dateLots":"","timeZone":"America/New_York","venue":"Madison Square Garden","altName":"New York","notes":"Capacity: 20,879","address":"4 Pennsylvania Plaza","city":"New York","state":"NY","postal":"10001","country":"USA","phoneNbr":"212-465-6741","venueURL":"https://www.msg.com/madison-square-garden","setlistURL":"http://phish.net/setlists/?d=2024-12-29","seatingURL":"https://maps.ticketmaster.com/maps/geometry/3/event/3B005E4BCF2417EE/staticImage?type=png&systemId=HOST","lat":"0.0","lng":"0.0","confidence":"0","placesPhotoReference":"","placesID":"","dateString":"29","monthString":"Dec","title":"Sun, Dec 29","YYYYMMDD":"20241229"},{"showID":102,"dateShow":"2024-12-30T19:30:00","dateDoors":"2024-12-30T18:30:00","dateLots":"","timeZone":"America/New_York","venue":"Madison Square Garden","altName":"New York","notes":"Capacity: 20,879","address":"4 Pennsylvania Plaza","city":"New York","state":"NY","postal":"10001","country":"USA","phoneNbr":"212-465-6741","venueURL":"https://www.msg.com/madison-square-garden","setlistURL":"http://phish.net/setlists/?d=2024-12-30","seatingURL":"https://maps.ticketmaster.com/maps/geometry/3/event/3B005E4BCF2417EE/staticImage?type=png&systemId=HOST","lat":"0.0","lng":"0.0","confidence":"0","placesPhotoReference":"","placesID":"","dateString":"30","monthString":"Dec","title":"Mon, Dec 30","YYYYMMDD":"20241230"},{"showID":103,"dateShow":"2024-12-31T19:30:00","dateDoors":"2024-12-31T18:30:00","dateLots":"","timeZone":"America/New_York","venue":"Madison Square Garden","altName":"New York","notes":"Capacity: 20,879","address":"4 Pennsylvania Plaza","city":"New York","state":"NY","postal":"10001","country":"USA","phoneNbr":"212-465-6741","venueURL":"https://www.msg.com/madison-square-garden","setlistURL":"http://phish.net/setlists/?d=2024-12-31","seatingURL":"https://maps.ticketmaster.com/maps/geometry/3/event/3B005E4BCF2417EE/staticImage?type=png&systemId=HOST","lat":"0.0","lng":"0.0","confidence":"0","placesPhotoReference":"","placesID":"","dateString":"31","monthString":"Dec","title":"Tue, Dec 31","YYYYMMDD":"20241231"}]