[{"showID":0,"dateShow":"2022-05-03T19:30:00","dateDoors":"","dateLots":"","timeZone":"America/Los_Angeles","venue":"Viejas Arena","altName":"San Diego","notes":"Capacity: 12,414","address":"5500 Canyon Crest Dr","city":"San Diego","state":"CA","postal":"92182","country":"USA","phoneNbr":"619-594-0234","venueURL":"https://as.sdsu.edu/viejas_arena/","setlistURL":"http://www.livefootsteps.org/setlist/?show_id=1065","seatingURL":"https://maps.ticketmaster.com/maps/geometry/3/event/0A005823EB374214/staticImage?type=png&systemId=HOST","lat":"0.0","lng":"0.0","confidence":"0","placesPhotoReference":"","placesID":"","dateString":"3","monthString":"May","title":"Tue, May 3","YYYYMMDD":"20220503"},{"showID":1,"dateShow":"2022-05-06T19:30:00","dateDoors":"","dateLots":"","timeZone":"America/Los_Angeles","venue":"Kia Forum","altName":"Inglewood","notes":"Capacity: 17,505","address":"3900 W Manchester Blvd","city":"Inglewood","state":"CA","postal":"90305","country":"USA","phoneNbr":"310-862-6200","venueURL":"https://thekiaforum.com/","setlistURL":"http://www.livefootsteps.org/setlist/?show_id=1066","seatingURL":"https://maps.ticketmaster.com/maps/geometry/3/event/0900579FF5542ADE/staticImage?type=png&systemId=HOST","lat":"0.0","lng":"0.0","confidence":"0","placesID":"","dateString":"6","monthString":"May","title":"Fri, May 6","YYYYMMDD":"20220506","placesPhotoReference":""},{"showID":2,"dateShow":"2022-05-07T19:30:00","dateDoors":"","dateLots":"","timeZone":"America/Los_Angeles","venue":"Kia Forum","altName":"Inglewood","notes":"Capacity: 17,505","address":"3900 W Manchester Blvd","city":"Inglewood","state":"CA","postal":"90305","country":"USA","phoneNbr":"310-862-6200","venueURL":"https://thekiaforum.com/","setlistURL":"http://www.livefootsteps.org/setlist/?show_id=1067","seatingURL":"https://maps.ticketmaster.com/maps/geometry/3/event/0900579FF5542ADE/staticImage?type=png&systemId=HOST","lat":"0.0","lng":"0.0","confidence":"0","placesID":"","dateString":"6","monthString":"May","title":"Fri, May 6","YYYYMMDD":"20220506","placesPhotoReference":""},{"showID":3,"dateShow":"2022-05-09T19:30:00","dateDoors":"","dateLots":"","timeZone":"America/Phoenix","venue":"Gila River Arena","altName":"Glendale","notes":"Capacity: 18,300","address":"9400 W Maryland Ave","city":"Glendale","state":"AZ","postal":"85305","country":"USA","phoneNbr":"","venueURL":"http://www.gilariverarena.com/","setlistURL":"http://www.livefootsteps.org/setlist/?show_id=1068","seatingURL":"https://maps.ticketmaster.com/maps/geometry/3/event/19005826D26D3013/staticImage?type=png&systemId=HOST","lat":"0.0","lng":"0.0","placesPhotoReference":"","placesID":"","dateString":"9","monthString":"May","title":"Mon, May 9","YYYYMMDD":"20220509","confidence":"0"},{"showID":5,"dateShow":"2022-05-12T19:30:00","dateDoors":"","dateLots":"","timeZone":"America/Los_Angeles","venue":"Oakland Arena","altName":"Oakland","notes":"Capacity: 19,596","address":"7000 Coliseum Way","city":"Oakland","state":"CA","postal":"94621","country":"USA","phoneNbr":"510-569-2121","venueURL":"http://www.theoaklandarena.com/","setlistURL":"http://www.livefootsteps.org/setlist/?show_id=1069","seatingURL":"https://maps.ticketmaster.com/maps/geometry/3/event/1C005797AEB434AB/staticImage?type=png&systemId=HOST","lat":"0.0","lng":"0.0","confidence":"0","placesPhotoReference":"","placesID":"","dateString":"12","monthString":"May","title":"Thu, May 12","YYYYMMDD":"20220512"},{"showID":5,"dateShow":"2022-05-13T19:30:00","dateDoors":"","dateLots":"","timeZone":"America/Los_Angeles","venue":"Oakland Arena","altName":"Oakland","notes":"Capacity: 19,596","address":"7000 Coliseum Way","city":"Oakland","state":"CA","postal":"94621","country":"USA","phoneNbr":"510-569-2121","venueURL":"http://www.theoaklandarena.com/","setlistURL":"http://www.livefootsteps.org/setlist/?show_id=1070","seatingURL":"https://maps.ticketmaster.com/maps/geometry/3/event/1C005797AEB434AB/staticImage?type=png&systemId=HOST","lat":"0.0","lng":"0.0","confidence":"0","placesPhotoReference":"","placesID":"","dateString":"12","monthString":"May","title":"Thu, May 12","YYYYMMDD":"20220512"},{"showID":6,"dateShow":"2022-05-16T19:30:00","dateDoors":"","dateLots":"","timeZone":"America/Los_Angeles","venue":"Save Mart Center","altName":"Fresno","notes":"Capacity: 16,182","address":"2650 E Shaw Ave","city":"Fresno","state":"CA","postal":"93710","country":"USA","phoneNbr":"559-278-3401","venueURL":"http://savemartcenter.com/","setlistURL":"http://www.livefootsteps.org/setlist/?show_id=1071","seatingURL":"https://maps.ticketmaster.com/maps/geometry/3/event/1C005C63950239C5/staticImage?type=png&systemId=HOST","lat":"0.0","lng":"0.0","confidence":"0","placesPhotoReference":"","placesID":"","dateString":"12","monthString":"May","title":"Thu, May 12","YYYYMMDD":"20220512"},{"showID":7,"dateShow":"2022-05-18T19:30:00","dateDoors":"","dateLots":"","timeZone":"America/Los_Angeles","venue":"Golden 1 Center","altName":"Sacramento","notes":"Capacity: 17,608","address":"500 David J Stern Walk","city":"Sacramento","state":"CA","postal":"95814","country":"USA","phoneNbr":"888-915-4647","venueURL":"https://www.golden1center.com/","setlistURL":"http://www.livefootsteps.org/setlist/?show_id=1072","seatingURL":"https://maps.ticketmaster.com/maps/geometry/3/event/1C005C63FBE57A84/staticImage?type=png&systemId=HOST","lat":"0.0","lng":"0.0","confidence":"0","placesPhotoReference":"","placesID":"","dateString":"12","monthString":"May","title":"Thu, May 12","YYYYMMDD":"20220512"},{"showID":8,"dateShow":"2022-05-20T19:30:00","dateDoors":"","dateLots":"","timeZone":"America/Los_Angeles","venue":"MGM Grand Garden Arena","altName":"Las Vegas","notes":"Capacity: 16,800","address":"3799 S Las Vegas Blvd","city":"Las Vegas","state":"NV","postal":"89109","country":"USA","phoneNbr":"702-891-1111","venueURL":"https://mgmgrand.mgmresorts.com/en/entertainment/grand-garden-arena.html","setlistURL":"http://www.livefootsteps.org/setlist/?show_id=1073","seatingURL":"https://maps.ticketmaster.com/maps/geometry/3/event/2E005C63C0D02F1A/staticImage?type=png&systemId=HOST","lat":"0.0","lng":"0.0","confidence":"0","placesPhotoReference":"","placesID":"","dateString":"12","monthString":"May","title":"Thu, May 12","YYYYMMDD":"20220512"}]