[{"showID":100,"dateShow":"2023-04-15T20:00:00","dateDoors":"2023-04-15T18:30:00","dateLots":"","timeZone":"America/Chicago","venue":"The Moody Theater","altName":"St. Augustine","notes":"Capacity: 2,750","address":"310 W Willie Nelson Blvd","city":"Austin","state":"TX","postal":"78701","country":"USA","phoneNbr":"512-404-1300","venueURL":"https://acllive.com/","setlistURL":"http://www.everydaycompanion.com/setlists/20230415a.asp","seatingURL":"https://maps.ticketmaster.com/maps/geometry/3/event/3A005D8C135DB8CF/staticImage?type=png&systemId=HOST","lat":"0.0","lng":"0.0","confidence":"0","placesPhotoReference":"","placesID":"","dateString":"1","monthString":"Oct","title":"Sat, Oct 1","YYYYMMDD":"20221001"},{"showID":101,"dateShow":"2023-04-16T20:00:00","dateDoors":"2023-04-16T18:30:00","dateLots":"","timeZone":"America/Chicago","venue":"The Moody Theater","altName":"St. Augustine","notes":"Capacity: 2,750","address":"310 W Willie Nelson Blvd","city":"Austin","state":"TX","postal":"78701","country":"USA","phoneNbr":"512-404-1300","venueURL":"https://acllive.com/","setlistURL":"http://www.everydaycompanion.com/setlists/20230416a.asp","seatingURL":"https://maps.ticketmaster.com/maps/geometry/3/event/3A005D8C135DB8CF/staticImage?type=png&systemId=HOST","lat":"0.0","lng":"0.0","confidence":"0","placesPhotoReference":"","placesID":"","dateString":"1","monthString":"Oct","title":"Sat, Oct 1","YYYYMMDD":"20221001"},{"showID":102,"dateShow":"2023-04-18T20:00:00","dateDoors":"2023-04-18T18:30:00","dateLots":"","timeZone":"America/Chicago","venue":"The Moody Theater","altName":"St. Augustine","notes":"Capacity: 2,750","address":"310 W Willie Nelson Blvd","city":"Austin","state":"TX","postal":"78701","country":"USA","phoneNbr":"512-404-1300","venueURL":"https://acllive.com/","setlistURL":"http://www.everydaycompanion.com/setlists/20230418a.asp","seatingURL":"https://maps.ticketmaster.com/maps/geometry/3/event/3A005D8C135DB8CF/staticImage?type=png&systemId=HOST","lat":"0.0","lng":"0.0","confidence":"0","placesPhotoReference":"","placesID":"","dateString":"1","monthString":"Oct","title":"Sat, Oct 1","YYYYMMDD":"20221001"},{"showID":103,"dateShow":"2023-04-19T20:00:00","dateDoors":"2023-04-19T18:30:00","dateLots":"","timeZone":"America/Chicago","venue":"The Moody Theater","altName":"St. Augustine","notes":"Capacity: 2,750","address":"310 W Willie Nelson Blvd","city":"Austin","state":"TX","postal":"78701","country":"USA","phoneNbr":"512-404-1300","venueURL":"https://acllive.com/","setlistURL":"http://www.everydaycompanion.com/setlists/20230419a.asp","seatingURL":"https://maps.ticketmaster.com/maps/geometry/3/event/3A005D8C135DB8CF/staticImage?type=png&systemId=HOST","lat":"0.0","lng":"0.0","confidence":"0","placesPhotoReference":"","placesID":"","dateString":"1","monthString":"Oct","title":"Sat, Oct 1","YYYYMMDD":"20221001"},{"showID":104,"dateShow":"2023-04-21T20:00:00","dateDoors":"2023-04-21T18:30:00","dateLots":"","timeZone":"America/Chicago","venue":"The Moody Theater","altName":"St. Augustine","notes":"Capacity: 2,750","address":"310 W Willie Nelson Blvd","city":"Austin","state":"TX","postal":"78701","country":"USA","phoneNbr":"512-404-1300","venueURL":"https://acllive.com/","setlistURL":"http://www.everydaycompanion.com/setlists/20230421a.asp","seatingURL":"https://maps.ticketmaster.com/maps/geometry/3/event/3A005D8C135DB8CF/staticImage?type=png&systemId=HOST","lat":"0.0","lng":"0.0","confidence":"0","placesPhotoReference":"","placesID":"","dateString":"1","monthString":"Oct","title":"Sat, Oct 1","YYYYMMDD":"20221001"},{"showID":105,"dateShow":"2023-04-22T20:00:00","dateDoors":"2023-04-22T18:30:00","dateLots":"","timeZone":"America/Chicago","venue":"The Moody Theater","altName":"St. Augustine","notes":"Capacity: 2,750","address":"310 W Willie Nelson Blvd","city":"Austin","state":"TX","postal":"78701","country":"USA","phoneNbr":"512-404-1300","venueURL":"https://acllive.com/","setlistURL":"http://www.everydaycompanion.com/setlists/20230422a.asp","seatingURL":"https://maps.ticketmaster.com/maps/geometry/3/event/3A005D8C135DB8CF/staticImage?type=png&systemId=HOST","lat":"0.0","lng":"0.0","confidence":"0","placesPhotoReference":"","placesID":"","dateString":"1","monthString":"Oct","title":"Sat, Oct 1","YYYYMMDD":"20221001"},{"showID":106,"dateShow":"2023-05-05T18:00:00","dateDoors":"2023-05-05T17:00:00","dateLots":"","timeZone":"America/New_York","venue":"Credit One Stadium","altName":"Charleston","notes":"Capacity: 10,200","address":"161 Seven Farms Drive","city":"Charleston","state":"SC","postal":"29492","country":"USA","phoneNbr":"","venueURL":"https://creditonestadium.com/","setlistURL":"http://www.everydaycompanion.com/setlists/20230505a.asp","seatingURL":"https://maps.ticketmaster.com/maps/geometry/3/event/2D005E4DE16D402D/staticImage?type=png&systemId=HOST","lat":"0.0","lng":"0.0","confidence":"0","placesPhotoReference":"","placesID":"","dateString":"1","monthString":"Oct","title":"Sat, Oct 1","YYYYMMDD":"20221001"},{"showID":107,"dateShow":"2023-05-06T18:00:00","dateDoors":"2023-05-06T17:00:00","dateLots":"","timeZone":"America/New_York","venue":"Credit One Stadium","altName":"Charleston","notes":"Capacity: 10,200","address":"161 Seven Farms Drive","city":"Charleston","state":"SC","postal":"29492","country":"USA","phoneNbr":"","venueURL":"https://creditonestadium.com/","setlistURL":"http://www.everydaycompanion.com/setlists/20230506a.asp","seatingURL":"https://maps.ticketmaster.com/maps/geometry/3/event/2D005E4DE16D402D/staticImage?type=png&systemId=HOST","lat":"0.0","lng":"0.0","confidence":"0","placesPhotoReference":"","placesID":"","dateString":"1","monthString":"Oct","title":"Sat, Oct 1","YYYYMMDD":"20221001"},{"showID":108,"dateShow":"2023-05-27T20:00:00","dateDoors":"2023-05-27T19:00:00","dateLots":"","timeZone":"America/Chicago","venue":"Brandon Amphitheater","altName":"Brandon","notes":"Capacity: 8,300","address":"8190 Rock Way","city":"Brandon","state":"MS","postal":"39042","country":"USA","phoneNbr":"601-724-2726","venueURL":"https://www.brandonamphitheater.com/events/","setlistURL":"http://www.everydaycompanion.com/setlists/20230527a.asp","seatingURL":"https://maps.ticketmaster.com/maps/geometry/3/event/1B005E3395013003/staticImage?type=png&systemId=HOST","lat":"0.0","lng":"0.0","confidence":"0","placesPhotoReference":"","placesID":"","dateString":"1","monthString":"Oct","title":"Sat, Oct 1","YYYYMMDD":"20221001"},{"showID":109,"dateShow":"2023-05-28T20:00:00","dateDoors":"2023-05-28T19:00:00","dateLots":"","timeZone":"America/Chicago","venue":"Brandon Amphitheater","altName":"Brandon","notes":"Capacity: 8,300","address":"8190 Rock Way","city":"Brandon","state":"MS","postal":"39042","country":"USA","phoneNbr":"601-724-2726","venueURL":"https://www.brandonamphitheater.com/events/","setlistURL":"http://www.everydaycompanion.com/setlists/20230527a.asp","seatingURL":"https://maps.ticketmaster.com/maps/geometry/3/event/1B005E3395013003/staticImage?type=png&systemId=HOST","lat":"0.0","lng":"0.0","confidence":"0","placesPhotoReference":"","placesID":"","dateString":"1","monthString":"Oct","title":"Sat, Oct 1","YYYYMMDD":"20221001"}]