[{"showID":200,"dateShow":"2025-01-28T19:30:00","dateDoors":"2025-01-28T18:00:00","dateLots":"","timeZone":"America/Cancun","venue":"Moon Palace","altName":"Riviera Maya","notes":"","address":"Cancun-Chetumal km 36.5","city":"Alfredo Bonfil","state":"77500 Cancún","postal":"Q.R.","country":"Mexico","phoneNbr":"+52 800 262 9008","venueURL":"https://www.moonpalace.com/en","setlistURL":"http://phish.net/setlists/?d=2026-01-28","seatingURL":"https://www.phishrivieramaya.com/activity-schedule/","lat":"20.9886511","lng":"-86.826701","confidence":"1","placesPhotoReference":"","placesID":"","dateString":"28","monthString":"Jan","title":"Tue, Jan 28","YYYYMMDD":"20250128"},{"showID":201,"dateShow":"2025-01-29T19:30:00","dateDoors":"2025-01-29T18:00:00","dateLots":"","timeZone":"America/Cancun","venue":"Moon Palace","altName":"Riviera Maya","notes":"","address":"Cancun-Chetumal km 36.5","city":"Alfredo Bonfil","state":"77500 Cancún","postal":"Q.R.","country":"Mexico","phoneNbr":"+52 800 262 9008","venueURL":"https://www.moonpalace.com/en","setlistURL":"http://phish.net/setlists/?d=2026-01-29","seatingURL":"https://www.phishrivieramaya.com/activity-schedule/","lat":"20.9886511","lng":"-86.826701","confidence":"1","placesPhotoReference":"","placesID":"","dateString":"29","monthString":"Jan","title":"Wed, Jan 29","YYYYMMDD":"20250129"},{"showID":202,"dateShow":"2025-01-30T19:30:00","dateDoors":"2025-01-30T18:00:00","dateLots":"","timeZone":"America/Cancun","venue":"Moon Palace","altName":"Riviera Maya","notes":"","address":"Cancun-Chetumal km 36.5","city":"Alfredo Bonfil","state":"77500 Cancún","postal":"Q.R.","country":"Mexico","phoneNbr":"+52 800 262 9008","venueURL":"https://www.moonpalace.com/en","setlistURL":"http://phish.net/setlists/?d=2026-01-30","seatingURL":"https://www.phishrivieramaya.com/activity-schedule/","lat":"20.9886511","lng":"-86.826701","confidence":"1","placesPhotoReference":"","placesID":"","dateString":"30","monthString":"Jan","title":"Thu, Jan 30","YYYYMMDD":"20250130"},{"showID":203,"dateShow":"2025-01-31T18:00:00","dateDoors":"2025-01-31T16:30:00","dateLots":"","timeZone":"America/Cancun","venue":"Moon Palace","altName":"Riviera Maya","notes":"","address":"Cancun-Chetumal km 36.5","city":"Alfredo Bonfil","state":"77500 Cancún","postal":"Q.R.","country":"Mexico","phoneNbr":"+52 800 262 9008","venueURL":"https://www.moonpalace.com/en","setlistURL":"http://phish.net/setlists/?d=2026-01-31","seatingURL":"https://www.phishrivieramaya.com/activity-schedule/","lat":"20.9886511","lng":"-86.826701","confidence":"1","placesPhotoReference":"","placesID":"","dateString":"31","monthString":"Jan","title":"Fri, Jan 31","YYYYMMDD":"20250131"}]