[{"showID":200,"dateShow":"2022-07-14T19:00:00","dateDoors":"2022-07-14T17:30:00","dateLots":"","timeZone":"America/New_York","venue":"Xfinity Center","altName":"Great Woods","notes":"Capacity: 19,900","address":"885 S Main St","city":"Mansfield","state":"MA","postal":"02048","country":"USA","phoneNbr":"742-856-7900","venueURL":"https://www.livenation.com/venue/KovZpZAEAElA/xfinity-center-events","setlistURL":"http://phish.net/setlists/?d=2022-07-14","seatingURL":"https://maps.ticketmaster.com/maps/geometry/3/event/01005C49F9377744/staticImage?type=png&systemId=HOST","lat":"41.9924315","lng":"-71.2199873","confidence":"1","placesPhotoReference":"","placesID":"","dateString":"23","monthString":"Apr","title":"Sat, Apr 23","YYYYMMDD":"20220423"},{"showID":201,"dateShow":"2022-07-15T19:00:00","dateDoors":"2022-07-15T17:30:00","dateLots":"","timeZone":"America/New_York","venue":"Xfinity Center","altName":"Great Woods","notes":"Capacity: 19,900","address":"885 S Main St","city":"Mansfield","state":"MA","postal":"02048","country":"USA","phoneNbr":"742-856-7900","venueURL":"https://www.livenation.com/venue/KovZpZAEAElA/xfinity-center-events","setlistURL":"http://phish.net/setlists/?d=2022-07-15","seatingURL":"https://maps.ticketmaster.com/maps/geometry/3/event/01005C49F9377744/staticImage?type=png&systemId=HOST","lat":"41.9924315","lng":"-71.2199873","confidence":"1","placesPhotoReference":"","placesID":"","dateString":"23","monthString":"Apr","title":"Sat, Apr 23","YYYYMMDD":"20220423"},{"showID":202,"dateShow":"2022-07-16T19:00:00","dateDoors":"2022-07-16T17:30:00","dateLots":"","timeZone":"America/New_York","venue":"Maine Savings Amphitheatre","altName":"Bangor","notes":"","address":"1 Railroad St","city":"Bangor","state":"ME","postal":"04401","country":"USA","phoneNbr":"207-358-9327","venueURL":"https://www.waterfrontconcerts.com/venue/maine-savings-amphitheater","setlistURL":"http://phish.net/setlists/?d=2022-07-16","seatingURL":"https://maps.ticketmaster.com/maps/geometry/3/event/01005C47C38F59D5/staticImage?type=png&systemId=HOST","lat":"44.7943949","lng":"-68.7728425","confidence":"1","placesPhotoReference":"","placesID":"","dateString":"23","monthString":"Apr","title":"Sat, Apr 23","YYYYMMDD":"20220423"},{"showID":203,"dateShow":"2022-07-19T19:30:00","dateDoors":"2022-07-19T18:00:00","dateLots":"","timeZone":"America/New_York","venue":"The Mann Center","altName":"Philadelphia","notes":"Capacity: 14,000","address":"5201 Parkside Ave","city":"Philadelphia","state":"PA","postal":"19131","country":"USA","phoneNbr":"215-546-7900","venueURL":"https://manncenter.org/","setlistURL":"http://phish.net/setlists/?d=2022-07-19","seatingURL":"https://maps.ticketmaster.com/maps/geometry/3/event/02005C4D1B7875E1/staticImage?type=png&systemId=HOST","lat":"39.98312749999999","lng":"-75.2209243","confidence":"1","placesPhotoReference":"","placesID":"","dateString":"23","monthString":"Apr","title":"Sat, Apr 23","YYYYMMDD":"20220423"},{"showID":204,"dateShow":"2022-07-20T19:30:00","dateDoors":"2022-07-20T18:00:00","dateLots":"","timeZone":"America/New_York","venue":"The Mann Center","altName":"Philadelphia","notes":"Capacity: 14,000","address":"5201 Parkside Ave","city":"Philadelphia","state":"PA","postal":"19131","country":"USA","phoneNbr":"215-546-7900","venueURL":"https://manncenter.org/","setlistURL":"http://phish.net/setlists/?d=2022-07-20","seatingURL":"https://maps.ticketmaster.com/maps/geometry/3/event/02005C4D1B7875E1/staticImage?type=png&systemId=HOST","lat":"39.98312749999999","lng":"-75.2209243","confidence":"1","placesPhotoReference":"","placesID":"","dateString":"23","monthString":"Apr","title":"Sat, Apr 23","YYYYMMDD":"20220423"},{"showID":205,"dateShow":"2022-07-22T19:30:00","dateDoors":"2022-07-22T18:00:00","dateLots":"","timeZone":"America/New_York","venue":"Bethel Woods Center for the Arts","altName":"Bethel","notes":"Capacity: 15,000","address":"200 Hurd Rd","city":"Bethel","state":"NY","postal":"12720","country":"USA","phoneNbr":"845-583-2000","venueURL":"https://www.bethelwoodscenter.org/","setlistURL":"http://phish.net/setlists/?d=2022-07-22","seatingURL":"https://maps.ticketmaster.com/maps/geometry/3/event/00005C4FA742A254/staticImage?type=png&systemId=HOST","lat":"41.6971535","lng":"-74.8776143","confidence":"1","placesPhotoReference":"","placesID":"","dateString":"23","monthString":"Apr","title":"Sat, Apr 23","YYYYMMDD":"20220423"},{"showID":206,"dateShow":"2022-07-23T19:30:00","dateDoors":"2022-07-23T18:00:00","dateLots":"","timeZone":"America/New_York","venue":"Bethel Woods Center for the Arts","altName":"Bethel","notes":"Capacity: 15,000","address":"200 Hurd Rd","city":"Bethel","state":"NY","postal":"12720","country":"USA","phoneNbr":"845-583-2000","venueURL":"https://www.bethelwoodscenter.org/","setlistURL":"http://phish.net/setlists/?d=2022-07-23","seatingURL":"https://maps.ticketmaster.com/maps/geometry/3/event/00005C4FA742A254/staticImage?type=png&systemId=HOST","lat":"41.6971535","lng":"-74.8776143","confidence":"1","placesPhotoReference":"","placesID":"","dateString":"23","monthString":"Apr","title":"Sat, Apr 23","YYYYMMDD":"20220423"},{"showID":207,"dateShow":"2022-06-24T19:00:00","dateDoors":"2022-06-24T17:30:00","dateLots":"","timeZone":"America/New_York","venue":"Xfinity Theatre","altName":"Hartford","notes":"Capacity: 30,000","address":"61 Savitt Way","city":"Hartford","state":"CT","postal":"06120","country":"USA","phoneNbr":"860-548-7370","venueURL":"https://www.livenation.com/venue/KovZpZAEkFnA/xfinity-theatre-events","setlistURL":"http://phish.net/setlists/?d=2022-06-24","seatingURL":"https://maps.ticketmaster.com/maps/geometry/3/event/1D005C43ADD11E8F/staticImage?type=png&systemId=HOST","lat":"41.7799034","lng":"-72.6689071","confidence":"1","placesPhotoReference":"","placesID":"","dateString":"23","monthString":"Apr","title":"Sat, Apr 23","YYYYMMDD":"20220423"},{"showID":208,"dateShow":"2022-07-26T19:30:00","dateDoors":"2022-07-26T18:00:00","dateLots":"","timeZone":"America/New_York","venue":"Jones Beach Theater","altName":"Wantagh","notes":"Capacity: 15,000","address":"895 Bay Pkwy","city":"Wantagh","state":"NY","postal":"11793","country":"USA","phoneNbr":"516-221-1000","venueURL":"https://www.livenation.com/venue/KovZpZAE6eAA/northwell-health-at-jones-beach-theater-events","setlistURL":"http://phish.net/setlists/?d=2022-07-26","seatingURL":"https://maps.ticketmaster.com/maps/geometry/3/event/1D005C47C5111814/staticImage?type=png&systemId=HOST","lat":"40.6009055","lng":"-73.5021682","confidence":"1","placesPhotoReference":"","placesID":"","dateString":"23","monthString":"Apr","title":"Sat, Apr 23","YYYYMMDD":"20220423"},{"showID":209,"dateShow":"2022-07-27T19:30:00","dateDoors":"2022-07-27T18:00:00","dateLots":"","timeZone":"America/New_York","venue":"Jones Beach Theater","altName":"Wantagh","notes":"Capacity: 15,000","address":"895 Bay Pkwy","city":"Wantagh","state":"NY","postal":"11793","country":"USA","phoneNbr":"516-221-1000","venueURL":"https://www.livenation.com/venue/KovZpZAE6eAA/northwell-health-at-jones-beach-theater-events","setlistURL":"http://phish.net/setlists/?d=2022-07-27","seatingURL":"https://maps.ticketmaster.com/maps/geometry/3/event/1D005C47C5111814/staticImage?type=png&systemId=HOST","lat":"40.6009055","lng":"-73.5021682","confidence":"1","placesPhotoReference":"","placesID":"","dateString":"23","monthString":"Apr","title":"Sat, Apr 23","YYYYMMDD":"20220423"},{"showID":210,"dateShow":"2022-07-29T19:00:00","dateDoors":"2022-07-29T17:30:00","dateLots":"","timeZone":"America/New_York","venue":"Coastal Credit Union Music Park","altName":"Raleigh","notes":"Capacity: 20,601","address":"3801 Rock Quarry Rd","city":"Raleigh","state":"NC","postal":"27610","country":"USA","phoneNbr":"919-831-6400","venueURL":"https://www.livenation.com/venue/KovZpZAEkeaA/coastal-credit-union-music-park-at-walnut-creek-events","setlistURL":"http://phish.net/setlists/?d=2022-07-29","seatingURL":"https://maps.ticketmaster.com/maps/geometry/3/event/2D005B82BD2C54D9/staticImage?type=png&systemId=HOST","lat":"35.7493881","lng":"-78.5763028","confidence":"1","placesPhotoReference":"","placesID":"","dateString":"23","monthString":"Apr","title":"Sat, Apr 23","YYYYMMDD":"20220423"},{"showID":211,"dateShow":"2022-07-30T19:00:00","dateDoors":"2022-07-30T17:30:00","dateLots":"","timeZone":"America/New_York","venue":"Merriweather Post Pavilion","altName":"Columbia","notes":"Capacity: 19,319","address":"10475 Little Patuxent Pkwy","city":"Columbia","state":"MD","postal":"21044","country":"USA","phoneNbr":"410-715-5550","venueURL":"https://merriweathermusic.com/","setlistURL":"http://phish.net/setlists/?d=2022-07-30","seatingURL":"https://maps.ticketmaster.com/maps/geometry/3/event/15005C4EC5F82393/staticImage?type=png&systemId=HOST","lat":"39.20938880000001","lng":"-76.86164749999999","confidence":"1","placesPhotoReference":"","placesID":"","dateString":"23","monthString":"Apr","title":"Sat, Apr 23","YYYYMMDD":"20220423"},{"showID":212,"dateShow":"2022-07-31T19:00:00","dateDoors":"2022-07-31T17:30:00","dateLots":"","timeZone":"America/New_York","venue":"Merriweather Post Pavilion","altName":"Columbia","notes":"Capacity: 19,319","address":"10475 Little Patuxent Pkwy","city":"Columbia","state":"MD","postal":"21044","country":"USA","phoneNbr":"410-715-5550","venueURL":"https://merriweathermusic.com/","setlistURL":"http://phish.net/setlists/?d=2022-07-31","seatingURL":"https://maps.ticketmaster.com/maps/geometry/3/event/15005C4EC5F82393/staticImage?type=png&systemId=HOST","lat":"39.20938880000001","lng":"-76.86164749999999","confidence":"1","placesPhotoReference":"","placesID":"","dateString":"23","monthString":"Apr","title":"Sat, Apr 23","YYYYMMDD":"20220423"},{"showID":213,"dateShow":"2022-08-02T19:00:00","dateDoors":"2022-08-02T17:30:00","dateLots":"","timeZone":"America/New_York","venue":"Blossom Music Center","altName":"Blossom","notes":"Capacity: 23,000","address":"1145 W Steels Corners Rd","city":"Cuyahoga Falls","state":"OH","postal":"44223","country":"USA","phoneNbr":"410-715-5550","venueURL":"https://www.livenation.com/venue/KovZpZAEAtAA/blossom-music-center-events","setlistURL":"http://phish.net/setlists/?d=2022-08-02","seatingURL":"https://maps.ticketmaster.com/maps/geometry/3/event/05005C4ACB834C07/staticImage?type=png&systemId=HOST","lat":"41.1913126","lng":"-81.5606581","confidence":"1","placesPhotoReference":"","placesID":"","dateString":"23","monthString":"Apr","title":"Sat, Apr 23","YYYYMMDD":"20220423"},{"showID":214,"dateShow":"2022-08-05T19:30:00","dateDoors":"2022-08-05T17:30:00","dateLots":"","timeZone":"America/New_York","venue":"Atlantic City Beach","altName":"Atlantic City","notes":"","address":"One Atlantic Ocean","city":"Atlantic City","state":"NJ","postal":"08401","country":"USA","phoneNbr":"","venueURL":"http://www.acbeachconcerts.com/","setlistURL":"http://phish.net/setlists/?d=2022-08-05","seatingURL":"http://www.acbeachconcerts.com/","lat":"39.3631634","lng":"-74.41583709999999","confidence":"1","placesPhotoReference":"","placesID":"","dateString":"23","monthString":"Apr","title":"Sat, Apr 23","YYYYMMDD":"20220423"},{"showID":215,"dateShow":"2022-08-06T19:30:00","dateDoors":"2022-08-06T17:30:00","dateLots":"","timeZone":"America/New_York","venue":"Atlantic City Beach","altName":"Atlantic City","notes":"","address":"One Atlantic Ocean","city":"Atlantic City","state":"NJ","postal":"08401","country":"USA","phoneNbr":"","venueURL":"http://www.acbeachconcerts.com/","setlistURL":"http://phish.net/setlists/?d=2022-08-06","seatingURL":"http://www.acbeachconcerts.com/","lat":"39.3631634","lng":"-74.41583709999999","confidence":"1","placesPhotoReference":"","placesID":"","dateString":"23","monthString":"Apr","title":"Sat, Apr 23","YYYYMMDD":"20220423"},{"showID":216,"dateShow":"2022-08-07T19:30:00","dateDoors":"2022-08-07T17:30:00","dateLots":"","timeZone":"America/New_York","venue":"Atlantic City Beach","altName":"Atlantic City","notes":"","address":"One Atlantic Ocean","city":"Atlantic City","state":"NJ","postal":"08401","country":"USA","phoneNbr":"","venueURL":"http://www.acbeachconcerts.com/","setlistURL":"http://phish.net/setlists/?d=2022-08-07","seatingURL":"http://www.acbeachconcerts.com/","lat":"39.3631634","lng":"-74.41583709999999","confidence":"1","placesPhotoReference":"","placesID":"","dateString":"23","monthString":"Apr","title":"Sat, Apr 23","YYYYMMDD":"20220423"},{"showID":217,"dateShow":"2022-08-10T19:00:00","dateDoors":"2022-08-10T17:30:00","dateLots":"","timeZone":"America/New_York","venue":"Budweiser Stage","altName":"Toronto","notes":"Capacity: 16,000","address":"909 Lake Shore Blvd W","city":"Toronto","state":"ON","postal":"M6K 3L3","country":"Canada","phoneNbr":"+1 416-260-5600","venueURL":"https://www.livenation.com/venue/KovZpZAEkkIA/budweiser-stage-events","setlistURL":"http://phish.net/setlists/?d=2022-08-10","seatingURL":"https://maps.ticketmaster.com/maps/geometry/3/event/10005C4EE8ED258A/staticImage?type=png&systemId=HOST","lat":"43.6292459","lng":"-79.4152393","confidence":"1","placesPhotoReference":"","placesID":"","dateString":"23","monthString":"Apr","title":"Sat, Apr 23","YYYYMMDD":"20220423"},{"showID":218,"dateShow":"2022-08-12T19:00:00","dateDoors":"2022-08-12T17:30:00","dateLots":"","timeZone":"America/Chicago","venue":"Alpine Valley Music Theatre","altName":"Alpine Valley","notes":"Capacity: 37,000","address":"2699 Co Rd D","city":"East Troy","state":"WI","postal":"53120","country":"USA","phoneNbr":"262-642-4400","venueURL":"https://www.livenation.com/venue/KovZpZAEkkIA/budweiser-stage-events","setlistURL":"http://phish.net/setlists/?d=2022-08-12","seatingURL":"https://maps.ticketmaster.com/maps/geometry/3/event/07005C3AEA285016/staticImage?type=png&systemId=HOST","lat":"42.7380042","lng":"-88.43384999999999","confidence":"1","placesPhotoReference":"","placesID":"","dateString":"23","monthString":"Apr","title":"Sat, Apr 23","YYYYMMDD":"20220423"},{"showID":219,"dateShow":"2022-08-13T19:00:00","dateDoors":"2022-08-13T17:30:00","dateLots":"","timeZone":"America/Chicago","venue":"Alpine Valley Music Theatre","altName":"Alpine Valley","notes":"Capacity: 37,000","address":"2699 Co Rd D","city":"East Troy","state":"WI","postal":"53120","country":"USA","phoneNbr":"262-642-4400","venueURL":"https://www.livenation.com/venue/KovZpZAEkkIA/budweiser-stage-events","setlistURL":"http://phish.net/setlists/?d=2022-08-13","seatingURL":"https://maps.ticketmaster.com/maps/geometry/3/event/07005C3AEA285016/staticImage?type=png&systemId=HOST","lat":"42.7380042","lng":"-88.43384999999999","confidence":"1","placesPhotoReference":"","placesID":"","dateString":"23","monthString":"Apr","title":"Sat, Apr 23","YYYYMMDD":"20220423"},{"showID":220,"dateShow":"2022-08-14T19:00:00","dateDoors":"2022-08-14T17:30:00","dateLots":"","timeZone":"America/Chicago","venue":"Alpine Valley Music Theatre","altName":"Alpine Valley","notes":"Capacity: 37,000","address":"2699 Co Rd D","city":"East Troy","state":"WI","postal":"53120","country":"USA","phoneNbr":"262-642-4400","venueURL":"https://www.livenation.com/venue/KovZpZAEkkIA/budweiser-stage-events","setlistURL":"http://phish.net/setlists/?d=2022-08-14","seatingURL":"https://maps.ticketmaster.com/maps/geometry/3/event/07005C3AEA285016/staticImage?type=png&systemId=HOST","lat":"42.7380042","lng":"-88.43384999999999","confidence":"1","placesPhotoReference":"","placesID":"","dateString":"23","monthString":"Apr","title":"Sat, Apr 23","YYYYMMDD":"20220423"},{"showID":221,"dateShow":"2022-09-01T19:30:00","dateDoors":"2022-09-01T18:00:00","dateLots":"","timeZone":"America/Denver","venue":"Dick's Sporting Goods Park","altName":"Commerce City","notes":"Capacity: 27,000","address":"6000 Victory Way","city":"Commerce City","state":"CO","postal":"80022","country":"USA","phoneNbr":"303-727-3500","venueURL":"https://www.dickssportinggoodspark.com/","setlistURL":"http://phish.net/setlists/?d=2022-09-01","seatingURL":"https://maps.ticketmaster.com/maps/geometry/3/event/1E005C4B94911C26/staticImage?type=png&systemId=HOST","lat":"39.8056202","lng":"-104.8918168","confidence":"1","placesPhotoReference":"","placesID":"","dateString":"23","monthString":"Apr","title":"Sat, Apr 23","YYYYMMDD":"20220423"},{"showID":222,"dateShow":"2022-09-02T19:30:00","dateDoors":"2022-09-02T18:00:00","dateLots":"","timeZone":"America/Denver","venue":"Dick's Sporting Goods Park","altName":"Commerce City","notes":"Capacity: 27,000","address":"6000 Victory Way","city":"Commerce City","state":"CO","postal":"80022","country":"USA","phoneNbr":"303-727-3500","venueURL":"https://www.dickssportinggoodspark.com/","setlistURL":"http://phish.net/setlists/?d=2022-09-02","seatingURL":"https://maps.ticketmaster.com/maps/geometry/3/event/1E005C4B94911C26/staticImage?type=png&systemId=HOST","lat":"39.8056202","lng":"-104.8918168","confidence":"1","placesPhotoReference":"","placesID":"","dateString":"23","monthString":"Apr","title":"Sat, Apr 23","YYYYMMDD":"20220423"},{"showID":223,"dateShow":"2022-09-03T19:30:00","dateDoors":"2022-09-03T18:00:00","dateLots":"","timeZone":"America/Denver","venue":"Dick's Sporting Goods Park","altName":"Commerce City","notes":"Capacity: 27,000","address":"6000 Victory Way","city":"Commerce City","state":"CO","postal":"80022","country":"USA","phoneNbr":"303-727-3500","venueURL":"https://www.dickssportinggoodspark.com/","setlistURL":"http://phish.net/setlists/?d=2022-09-03","seatingURL":"https://maps.ticketmaster.com/maps/geometry/3/event/1E005C4B94911C26/staticImage?type=png&systemId=HOST","lat":"39.8056202","lng":"-104.8918168","confidence":"1","placesPhotoReference":"","placesID":"","dateString":"23","monthString":"Apr","title":"Sat, Apr 23","YYYYMMDD":"20220423"},{"showID":224,"dateShow":"2022-09-04T19:30:00","dateDoors":"2022-09-04T18:00:00","dateLots":"","timeZone":"America/Denver","venue":"Dick's Sporting Goods Park","altName":"Commerce City","notes":"Capacity: 27,000","address":"6000 Victory Way","city":"Commerce City","state":"CO","postal":"80022","country":"USA","phoneNbr":"303-727-3500","venueURL":"https://www.dickssportinggoodspark.com/","setlistURL":"http://phish.net/setlists/?d=2022-09-04","seatingURL":"https://maps.ticketmaster.com/maps/geometry/3/event/1E005C4B94911C26/staticImage?type=png&systemId=HOST","lat":"39.8056202","lng":"-104.8918168","confidence":"1","placesPhotoReference":"","placesID":"","dateString":"23","monthString":"Apr","title":"Sat, Apr 23","YYYYMMDD":"20220423"}]