[{"showID":0,"dateShow":"2025-06-20T19:30:00","dateDoors":"2025-06-20T18:00:00","dateLots":"","timeZone":"America/New_York","venue":"SNHU Arena","altName":"Manchester","notes":"Capacity: 11,770","address":"555 Elm St","city":"Manchester","state":"NH","postal":"03101","country":"USA","phoneNbr":"603-644-5000","venueURL":"https://www.snhuarena.com/","setlistURL":"http://phish.net/setlists/?d=2025-06-20","seatingURL":"https://mapsapi.tmol.io/maps/geometry/3/event/0100624E9B274694/staticImage?type=png&systemId=HOST","lat":"42.9865885","lng":"-71.46166579999999","confidence":"1","placesPhotoReference":"","placesID":"","dateString":"20","monthString":"Jun","title":"Fri, Jun 20","YYYYMMDD":"20250620"},{"showID":1,"dateShow":"2025-06-21T19:30:00","dateDoors":"2025-06-21T18:00:00","dateLots":"","timeZone":"America/New_York","venue":"SNHU Arena","altName":"Manchester","notes":"Capacity: 11,770","address":"555 Elm St","city":"Manchester","state":"NH","postal":"03101","country":"USA","phoneNbr":"603-644-5000","venueURL":"https://www.snhuarena.com/","setlistURL":"http://phish.net/setlists/?d=2025-06-21","seatingURL":"https://mapsapi.tmol.io/maps/geometry/3/event/0100624E9B274694/staticImage?type=png&systemId=HOST","lat":"42.9865885","lng":"-71.46166579999999","confidence":"1","placesPhotoReference":"","placesID":"","dateString":"21","monthString":"Jun","title":"Sat, Jun 21","YYYYMMDD":"20250621"},{"showID":2,"dateShow":"2025-06-22T19:30:00","dateDoors":"2025-06-22T18:00:00","dateLots":"","timeZone":"America/New_York","venue":"SNHU Arena","altName":"Manchester","notes":"Capacity: 11,770","address":"555 Elm St","city":"Manchester","state":"NH","postal":"03101","country":"USA","phoneNbr":"603-644-5000","venueURL":"https://www.snhuarena.com/","setlistURL":"http://phish.net/setlists/?d=2025-06-22","seatingURL":"https://mapsapi.tmol.io/maps/geometry/3/event/0100624E9B274694/staticImage?type=png&systemId=HOST","lat":"42.9865885","lng":"-71.46166579999999","confidence":"1","placesPhotoReference":"","placesID":"","dateString":"22","monthString":"Jun","title":"Sun, Jun 22","YYYYMMDD":"20250622"},{"showID":3,"dateShow":"2025-06-24T19:30:00","dateDoors":"2025-06-24T18:00:00","dateLots":"","timeZone":"America/New_York","venue":"Petersen Events Center","altName":"Pittsburgh","notes":"Capacity: 12,508","address":"3719 Terrace St","city":"Pittsburgh","state":"PA","postal":"15261","country":"USA","phoneNbr":"412-648-3054","venueURL":"http://www.peterseneventscenter.com/","setlistURL":"http://phish.net/setlists/?d=2025-06-24","seatingURL":"https://mapsapi.tmol.io/maps/geometry/3/event/1600624DC118550D/staticImage?type=png&systemId=HOST","lat":"40.4439212","lng":"-79.96229439999999","confidence":"1","placesPhotoReference":"","placesID":"","dateString":"24","monthString":"Jun","title":"Tue, Jun 24","YYYYMMDD":"20250624"},{"showID":4,"dateShow":"2025-06-27T19:30:00","dateDoors":"2025-06-27T18:00:00","dateLots":"","timeZone":"America/Chicago","venue":"Moody Center","altName":"Austin","notes":"Capacity: 16,223","address":"2001 Robert Dedman Dr","city":"Austin","state":"TX","postal":"78712","country":"USA","phoneNbr":"512-651-7600","venueURL":"https://moodycenteratx.com/","setlistURL":"http://phish.net/setlists/?d=2025-06-27","seatingURL":"https://mapsapi.tmol.io/maps/geometry/3/event/3A00624EA8063F30/staticImage?type=png&systemId=HOST","lat":"30.2809699","lng":"-97.7306618","confidence":"1","placesPhotoReference":"","placesID":"","dateString":"27","monthString":"Jun","title":"Fri, Jun 27","YYYYMMDD":"20250627"},{"showID":5,"dateShow":"2025-06-28T19:30:00","dateDoors":"2025-06-28T18:00:00","dateLots":"","timeZone":"America/Chicago","venue":"Moody Center","altName":"Austin","notes":"Capacity: 16,223","address":"2001 Robert Dedman Dr","city":"Austin","state":"TX","postal":"78712","country":"USA","phoneNbr":"512-651-7600","venueURL":"https://moodycenteratx.com/","setlistURL":"http://phish.net/setlists/?d=2025-06-28","seatingURL":"https://mapsapi.tmol.io/maps/geometry/3/event/3A00624EA8063F30/staticImage?type=png&systemId=HOST","lat":"30.2809699","lng":"-97.7306618","confidence":"1","placesPhotoReference":"","placesID":"","dateString":"28","monthString":"Jun","title":"Sat, Jun 28","YYYYMMDD":"20250628"},{"showID":6,"dateShow":"2025-07-03T19:30:00","dateDoors":"2025-07-03T18:00:00","dateLots":"","timeZone":"America/Denver","venue":"Folsom Field","altName":"Boulder","notes":"Capacity: 50,183","address":"2400 Colorado Ave","city":"Boulder","state":"CO","postal":"80305","country":"USA","phoneNbr":"","venueURL":"https://cubuffs.com/facilities/folsom-field/1","setlistURL":"http://phish.net/setlists/?d=2025-07-03","seatingURL":"https://s3.us-east-2.amazonaws.com/sidearm.nextgen.sites/cubuffs.com/documents/2025/2/18/EV_2025_Concert_Map_PHISH_Combo.pdf","lat":"40.009472","lng":"-105.2668869","confidence":"1","placesPhotoReference":"","placesID":"","monthString":"Jul","title":"Thu, Jul 3","YYYYMMDD":"20250703","dateString":"3"},{"showID":7,"dateShow":"2025-07-04T19:30:00","dateDoors":"2025-07-04T18:00:00","dateLots":"","timeZone":"America/Denver","venue":"Folsom Field","altName":"Boulder","notes":"Capacity: 50,183","address":"2400 Colorado Ave","city":"Boulder","state":"CO","postal":"80305","country":"USA","phoneNbr":"","venueURL":"https://cubuffs.com/facilities/folsom-field/1","setlistURL":"http://phish.net/setlists/?d=2025-07-04","seatingURL":"https://s3.us-east-2.amazonaws.com/sidearm.nextgen.sites/cubuffs.com/documents/2025/2/18/EV_2025_Concert_Map_PHISH_Combo.pdf","lat":"40.009472","lng":"-105.2668869","confidence":"1","placesPhotoReference":"","placesID":"","dateString":"4","monthString":"Jul","title":"Fri, Jul 4","YYYYMMDD":"20250704"},{"showID":8,"dateShow":"2025-07-05T19:30:00","dateDoors":"2025-07-05T18:00:00","dateLots":"","timeZone":"America/Denver","venue":"Folsom Field","altName":"Boulder","notes":"Capacity: 50,183","address":"2400 Colorado Ave","city":"Boulder","state":"CO","postal":"80305","country":"USA","phoneNbr":"","venueURL":"https://cubuffs.com/facilities/folsom-field/1","setlistURL":"http://phish.net/setlists/?d=2025-07-05","seatingURL":"https://s3.us-east-2.amazonaws.com/sidearm.nextgen.sites/cubuffs.com/documents/2025/2/18/EV_2025_Concert_Map_PHISH_Combo.pdf","lat":"40.009472","lng":"-105.2668869","confidence":"1","placesPhotoReference":"","placesID":"","dateString":"5","monthString":"Jul","title":"Sat, Jul 5","YYYYMMDD":"20250705"},{"showID":9,"dateShow":"2025-07-09T19:30:00","dateDoors":"2025-07-09T18:00:00","dateLots":"","timeZone":"America/New_York","venue":"Schottenstein Center","altName":"Columbus","notes":"Capacity: 18,809","address":"555 Borror Dr","city":"Columbus","state":"OH","postal":"43210","country":"USA","phoneNbr":"614-688-3939","venueURL":"https://www.schottensteincenter.com/","setlistURL":"http://phish.net/setlists/?d=2025-07-09","seatingURL":"https://mapsapi.tmol.io/maps/geometry/3/event/0500624EB5023E79/staticImage?type=png&systemId=HOST","lat":"40.0075992","lng":"-83.0248064","confidence":"1","placesPhotoReference":"","placesID":"","dateString":"9","monthString":"Jul","title":"Wed, Jul 9","YYYYMMDD":"20250709"},{"showID":10,"dateShow":"2025-07-11T19:30:00","dateDoors":"2025-07-11T18:00:00","dateLots":"","timeZone":"America/New_York","venue":"North Charleston Coliseum","altName":"North Charleston","notes":"Capacity: 13,295","address":"5001 Coliseum Dr","city":"North Charleston","state":"SC","postal":"29418","country":"USA","phoneNbr":"843-529-5000","venueURL":"https://www.northcharlestoncoliseumpac.com/","setlistURL":"http://phish.net/setlists/?d=2025-07-11","seatingURL":"https://mapsapi.tmol.io/maps/geometry/3/event/2D00624CDBA35D1E/staticImage?type=png&systemId=HOST","lat":"32.8654952","lng":"-80.02243399999999","confidence":"1","placesPhotoReference":"","placesID":"","dateString":"11","monthString":"Jul","title":"Fri, Jul 11","YYYYMMDD":"20250711"},{"showID":11,"dateShow":"2025-07-12T19:30:00","dateDoors":"2025-07-12T18:00:00","dateLots":"","timeZone":"America/New_York","venue":"North Charleston Coliseum","altName":"North Charleston","notes":"Capacity: 13,295","address":"5001 Coliseum Dr","city":"North Charleston","state":"SC","postal":"29418","country":"USA","phoneNbr":"843-529-5000","venueURL":"https://www.northcharlestoncoliseumpac.com/","setlistURL":"http://phish.net/setlists/?d=2025-07-12","seatingURL":"https://mapsapi.tmol.io/maps/geometry/3/event/2D00624CDBA35D1E/staticImage?type=png&systemId=HOST","lat":"32.8654952","lng":"-80.02243399999999","confidence":"1","placesPhotoReference":"","placesID":"","dateString":"12","monthString":"Jul","title":"Sat, Jul 12","YYYYMMDD":"20250712"},{"showID":12,"dateShow":"2025-07-13T19:30:00","dateDoors":"2025-07-13T18:00:00","dateLots":"","timeZone":"America/New_York","venue":"North Charleston Coliseum","altName":"North Charleston","notes":"Capacity: 13,295","address":"5001 Coliseum Dr","city":"North Charleston","state":"SC","postal":"29418","country":"USA","phoneNbr":"843-529-5000","venueURL":"https://www.northcharlestoncoliseumpac.com/","setlistURL":"http://phish.net/setlists/?d=2025-07-13","seatingURL":"https://mapsapi.tmol.io/maps/geometry/3/event/2D00624CDBA35D1E/staticImage?type=png&systemId=HOST","lat":"32.8654952","lng":"-80.02243399999999","confidence":"1","placesPhotoReference":"","placesID":"","dateString":"13","monthString":"Jul","title":"Sun, Jul 13","YYYYMMDD":"20250713"},{"showID":13,"dateShow":"2025-07-15T19:30:00","dateDoors":"2025-07-15T18:00:00","dateLots":"","timeZone":"America/New_York","venue":"TD Pavilion at the Mann","altName":"Philadelphia","notes":"Capacity: 14,000","address":"5201 Parkside Ave","city":"Philadelphia","state":"PA","postal":"19131","country":"USA","phoneNbr":"215-546-7900","venueURL":"https://manncenter.org/","setlistURL":"http://phish.net/setlists/?d=2025-07-15","seatingURL":"https://mapsapi.tmol.io/maps/geometry/3/event/0200624C991F1CEF/staticImage?type=png&systemId=HOST","lat":"39.9834489","lng":"-75.22292829999999","confidence":"1","placesPhotoReference":"","placesID":"","dateString":"15","monthString":"Jul","title":"Tue, Jul 15","YYYYMMDD":"20250715"},{"showID":14,"dateShow":"2025-07-16T19:30:00","dateDoors":"2025-07-16T18:00:00","dateLots":"","timeZone":"America/New_York","venue":"TD Pavilion at the Mann","altName":"Philadelphia","notes":"Capacity: 14,000","address":"5201 Parkside Ave","city":"Philadelphia","state":"PA","postal":"19131","country":"USA","phoneNbr":"215-546-7900","venueURL":"https://manncenter.org/","setlistURL":"http://phish.net/setlists/?d=2025-07-16","seatingURL":"https://mapsapi.tmol.io/maps/geometry/3/event/0200624C991F1CEF/staticImage?type=png&systemId=HOST","lat":"39.9834489","lng":"-75.22292829999999","confidence":"1","placesPhotoReference":"","placesID":"","dateString":"16","monthString":"Jul","title":"Wed, Jul 16","YYYYMMDD":"20250716"},{"showID":15,"dateShow":"2025-07-18T19:30:00","dateDoors":"2025-07-18T18:00:00","dateLots":"","timeZone":"America/New_York","venue":"United Center","altName":"Chicago","notes":"Capacity: 23,500","address":"1901 W Madison","city":"Chicago","state":"IL","postal":"60612","country":"USA","phoneNbr":"","venueURL":"https://www.unitedcenter.com/","setlistURL":"http://phish.net/setlists/?d=2025-07-18","seatingURL":"https://mapsapi.tmol.io/maps/geometry/3/event/040062510D4821C8/staticImage?type=png&systemId=HOST","lat":"41.8806908","lng":"-87.6741759","confidence":"1","placesPhotoReference":"","placesID":"","dateString":"18","monthString":"Jul","title":"Fri, Jul 18","YYYYMMDD":"20250718"},{"showID":16,"dateShow":"2025-07-19T19:30:00","dateDoors":"2025-07-19T18:00:00","dateLots":"","timeZone":"America/New_York","venue":"United Center","altName":"Chicago","notes":"Capacity: 23,500","address":"1901 W Madison","city":"Chicago","state":"IL","postal":"60612","country":"USA","phoneNbr":"","venueURL":"https://www.unitedcenter.com/","setlistURL":"http://phish.net/setlists/?d=2025-07-19","seatingURL":"https://mapsapi.tmol.io/maps/geometry/3/event/040062510D4821C8/staticImage?type=png&systemId=HOST","lat":"41.8806908","lng":"-87.6741759","confidence":"1","placesPhotoReference":"","placesID":"","dateString":"19","monthString":"Jul","title":"Sat, Jul 19","YYYYMMDD":"20250719"},{"showID":17,"dateShow":"2025-07-20T19:30:00","dateDoors":"2025-07-20T18:00:00","dateLots":"","timeZone":"America/New_York","venue":"United Center","altName":"Chicago","notes":"Capacity: 23,500","address":"1901 W Madison","city":"Chicago","state":"IL","postal":"60612","country":"USA","phoneNbr":"","venueURL":"https://www.unitedcenter.com/","setlistURL":"http://phish.net/setlists/?d=2025-07-20","seatingURL":"https://mapsapi.tmol.io/maps/geometry/3/event/040062510D4821C8/staticImage?type=png&systemId=HOST","lat":"41.8806908","lng":"-87.6741759","confidence":"1","placesPhotoReference":"","placesID":"","dateString":"20","monthString":"Jul","title":"Sun, Jul 20","YYYYMMDD":"20250720"},{"showID":18,"dateShow":"2025-07-22T18:00:00","dateDoors":"2025-07-22T16:30:00","dateLots":"","timeZone":"America/New_York","venue":"Forest Hils Stadium","altName":"Forest Hills","notes":"Capacity: 13,000","address":"1 Tennis Pl","city":"Forest Hills","state":"NY","postal":"11375","country":"USA","phoneNbr":"888-929-7849","venueURL":"https://creditonestadium.com/","setlistURL":"http://phish.net/setlists/?d=2025-07-22","seatingURL":"https://s3.amazonaws.com/prd218.tm-prod.tt.prod.us-east-1.tmaws-cdn/prod1/V2/c/cc/ccc45645facec34c5f47338bd136bddb2bdce0e7.jpg","lat":"40.7192438","lng":"-73.84992679999999","confidence":"1","placesPhotoReference":"","placesID":"","dateString":"22","monthString":"Jul","title":"Tue, Jul 22","YYYYMMDD":"20250722"},{"showID":19,"dateShow":"2025-07-23T18:00:00","dateDoors":"2025-07-23T16:30:00","dateLots":"","timeZone":"America/New_York","venue":"Forest Hils Stadium","altName":"Forest Hills","notes":"Capacity: 13,000","address":"1 Tennis Pl","city":"Forest Hills","state":"NY","postal":"11375","country":"USA","phoneNbr":"888-929-7849","venueURL":"https://creditonestadium.com/","setlistURL":"http://phish.net/setlists/?d=2025-07-23","seatingURL":"https://s3.amazonaws.com/prd218.tm-prod.tt.prod.us-east-1.tmaws-cdn/prod1/V2/c/cc/ccc45645facec34c5f47338bd136bddb2bdce0e7.jpg","lat":"40.7192438","lng":"-73.84992679999999","confidence":"1","placesPhotoReference":"","placesID":"","dateString":"23","monthString":"Jul","title":"Wed, Jul 23","YYYYMMDD":"20250723"},{"showID":20,"dateShow":"2025-07-25T19:30:00","dateDoors":"2025-07-25T18:00:00","dateLots":"","timeZone":"America/New_York","venue":"Broadview Stage at SPAC","altName":"Saratoga Springs","notes":"Capacity: 25,100","address":"108 Avenue of the Pines","city":"Saratoga Springs","state":"NY","postal":"12866","country":"USA","phoneNbr":"518-584-9330","venueURL":"https://spac.org/","setlistURL":"http://phish.net/setlists/?d=2025-07-25","seatingURL":"https://mapsapi.tmol.io/maps/geometry/3/event/0000624BD6BB5BDB/staticImage?type=png&systemId=HOST","lat":"43.055381","lng":"-73.80593","confidence":"1","placesPhotoReference":"","placesID":"","dateString":"25","monthString":"Jul","title":"Fri, Jul 25","YYYYMMDD":"20250725"},{"showID":21,"dateShow":"2025-07-26T19:30:00","dateDoors":"2025-07-26T18:00:00","dateLots":"","timeZone":"America/New_York","venue":"Broadview Stage at SPAC","altName":"Saratoga Springs","notes":"Capacity: 25,100","address":"108 Avenue of the Pines","city":"Saratoga Springs","state":"NY","postal":"12866","country":"USA","phoneNbr":"518-584-9330","venueURL":"https://spac.org/","setlistURL":"http://phish.net/setlists/?d=2025-07-26","seatingURL":"https://mapsapi.tmol.io/maps/geometry/3/event/0000624BD6BB5BDB/staticImage?type=png&systemId=HOST","lat":"43.055381","lng":"-73.80593","confidence":"1","placesPhotoReference":"","placesID":"","dateString":"26","monthString":"Jul","title":"Sat, Jul 26","YYYYMMDD":"20250726"},{"showID":22,"dateShow":"2025-07-27T19:30:00","dateDoors":"2025-07-27T18:00:00","dateLots":"","timeZone":"America/New_York","venue":"Broadview Stage at SPAC","altName":"Saratoga Springs","notes":"Capacity: 25,100","address":"108 Avenue of the Pines","city":"Saratoga Springs","state":"NY","postal":"12866","country":"USA","phoneNbr":"518-584-9330","venueURL":"https://spac.org/","setlistURL":"http://phish.net/setlists/?d=2025-07-27","seatingURL":"https://mapsapi.tmol.io/maps/geometry/3/event/0000624BD6BB5BDB/staticImage?type=png&systemId=HOST","lat":"43.055381","lng":"-73.80593","confidence":"1","placesPhotoReference":"","placesID":"","dateString":"27","monthString":"Jul","title":"Sun, Jul 27","YYYYMMDD":"20250727"},{"showID":23,"dateShow":"2025-09-12T19:30:00","dateDoors":"","dateLots":"","timeZone":"America/Chicago","venue":"Highland Festival Grounds","altName":"Louisville","notes":"Bourbon & Beyond Festival","address":"1016 Phillips Ln","city":"Louisville","state":"KY","postal":"40209","country":"USA","phoneNbr":"","venueURL":"https://bourbonandbeyond.com/","setlistURL":"http://phish.net/setlists/?d=2025-09-12","seatingURL":"https://bourbonandbeyond.com/wp-content/uploads/2025/01/BB25_Ticketing_Map_V8.jpg","lat":"38.1954628","lng":"-85.7359036","confidence":"1","placesPhotoReference":"","placesID":"","dateString":"12","monthString":"Sep","title":"Fri, Sep 12","YYYYMMDD":"20250912"},{"showID":24,"dateShow":"2025-09-13T19:00:00","dateDoors":"","dateLots":"","timeZone":"America/Chicago","venue":"Coca-Cola Amphitheater","altName":"Birmingham","notes":"Capacity: 9,300","address":"2350 15th Ave N","city":"Birmingham","state":"AL","postal":"35234","country":"USA","phoneNbr":"","venueURL":"https://www.coca-colaamphitheater.com/visit","setlistURL":"http://phish.net/setlists/?d=2025-09-13","seatingURL":"https://mapsapi.tmol.io/maps/geometry/3/event/200062BCDD599FBC/staticImage?type=png&systemId=HOST","lat":"33.5338278","lng":"-86.81173129999999","confidence":"1","placesPhotoReference":"","placesID":"","dateString":"13","monthString":"Sep","title":"Sat, Sep 13","YYYYMMDD":"20250913"},{"showID":25,"dateShow":"2025-09-14T19:00:00","dateDoors":"","dateLots":"","timeZone":"America/Chicago","venue":"Coca-Cola Amphitheater","altName":"Birmingham","notes":"Capacity: 9,300","address":"2350 15th Ave N","city":"Birmingham","state":"AL","postal":"35234","country":"USA","phoneNbr":"","venueURL":"https://www.coca-colaamphitheater.com/visit","setlistURL":"http://phish.net/setlists/?d=2025-09-14","seatingURL":"https://mapsapi.tmol.io/maps/geometry/3/event/200062BCDD599FBC/staticImage?type=png&systemId=HOST","lat":"33.5338278","lng":"-86.81173129999999","confidence":"1","placesPhotoReference":"","placesID":"","dateString":"14","monthString":"Sep","title":"Sun, Sep 14","YYYYMMDD":"20250914"},{"showID":26,"dateShow":"2025-09-16T19:00:00","dateDoors":"","dateLots":"","timeZone":"America/New_York","venue":"Ameris Bank Amphitheatre","altName":"Alpharetta","notes":"Capacity: 12,000","address":"2200 Encore Pkwy","city":"Alpharetta","state":"GA","postal":"30009","country":"USA","phoneNbr":"404-733-5010","venueURL":"https://www.amerisbankampatl.com/","setlistURL":"http://phish.net/setlists/?d=2025-09-16","seatingURL":"https://mapsapi.tmol.io/maps/geometry/3/event/0E0062B591401F13/staticImage?type=png&systemId=HOST","lat":"34.0544281","lng":"-84.3063583","confidence":"1","placesPhotoReference":"","placesID":"","dateString":"16","monthString":"Sep","title":"Tue, Sep 16","YYYYMMDD":"20250916"},{"showID":27,"dateShow":"2025-09-17T19:00:00","dateDoors":"","dateLots":"","timeZone":"America/New_York","venue":"Ameris Bank Amphitheatre","altName":"Alpharetta","notes":"Capacity: 12,000","address":"2200 Encore Pkwy","city":"Alpharetta","state":"GA","postal":"30009","country":"USA","phoneNbr":"404-733-5010","venueURL":"https://www.amerisbankampatl.com/","setlistURL":"http://phish.net/setlists/?d=2025-09-17","seatingURL":"https://mapsapi.tmol.io/maps/geometry/3/event/0E0062B591401F13/staticImage?type=png&systemId=HOST","lat":"34.0544281","lng":"-84.3063583","confidence":"1","placesPhotoReference":"","placesID":"","dateString":"17","monthString":"Sep","title":"Wed, Sep 17","YYYYMMDD":"20250917"},{"showID":28,"dateShow":"2025-09-19T19:30:00","dateDoors":"","dateLots":"","timeZone":"America/New_York","venue":"Hampton Coliseum","altName":"Hampton","notes":"Capacity: 12,999","address":"1000 Coliseum Dr","city":"Hampton","state":"VA","postal":"23666","country":"USA","phoneNbr":"757-838-4203","venueURL":"https://www.hamptoncoliseum.org/","setlistURL":"http://phish.net/setlists/?d=2025-09-19","seatingURL":"https://mapsapi.tmol.io/maps/geometry/3/event/010062AFDF8FC2D9/staticImage?type=png&systemId=HOST","lat":"37.03472800000001","lng":"-76.38132","confidence":"1","placesPhotoReference":"","placesID":"","dateString":"19","monthString":"Sep","title":"Fri, Sep 19","YYYYMMDD":"20250919"},{"showID":29,"dateShow":"2025-09-20T19:30:00","dateDoors":"","dateLots":"","timeZone":"America/New_York","venue":"Hampton Coliseum","altName":"Hampton","notes":"Capacity: 12,999","address":"1000 Coliseum Dr","city":"Hampton","state":"VA","postal":"23666","country":"USA","phoneNbr":"757-838-4203","venueURL":"https://www.hamptoncoliseum.org/","setlistURL":"http://phish.net/setlists/?d=2025-09-20","seatingURL":"https://mapsapi.tmol.io/maps/geometry/3/event/010062AFDF8FC2D9/staticImage?type=png&systemId=HOST","lat":"37.03472800000001","lng":"-76.38132","confidence":"1","placesPhotoReference":"","placesID":"","dateString":"20","monthString":"Sep","title":"Sat, Sep 20","YYYYMMDD":"20250920"},{"showID":30,"dateShow":"2025-09-21T19:30:00","dateDoors":"","dateLots":"","timeZone":"America/New_York","venue":"Hampton Coliseum","altName":"Hampton","notes":"Capacity: 12,999","address":"1000 Coliseum Dr","city":"Hampton","state":"VA","postal":"23666","country":"USA","phoneNbr":"757-838-4203","venueURL":"https://www.hamptoncoliseum.org/","setlistURL":"http://phish.net/setlists/?d=2025-09-21","seatingURL":"https://mapsapi.tmol.io/maps/geometry/3/event/010062AFDF8FC2D9/staticImage?type=png&systemId=HOST","lat":"37.03472800000001","lng":"-76.38132","confidence":"1","placesPhotoReference":"","placesID":"","dateString":"21","monthString":"Sep","title":"Sun, Sep 21","YYYYMMDD":"20250921"}]