[{"showID":100,"dateShow":"2023-04-14T19:30:00","dateDoors":"2023-04-14T18:00:00","dateLots":"","timeZone":"America/Los_Angeles","venue":"Climate Pledge Arena","altName":"Seattle","notes":"Capacity: 17,459","address":"334 1st Ave N","city":"Seattle","state":"WA","postal":"98109","country":"USA","phoneNbr":"206-752-7600","venueURL":"https://climatepledgearena.com/","setlistURL":"http://phish.net/setlists/?d=2023-04-14","seatingURL":"https://maps.ticketmaster.com/maps/geometry/3/event/0F005E29A8C526D8/staticImage?type=png&systemId=HOST","lat":"0.0","lng":"0.0","confidence":"0","placesPhotoReference":"","placesID":"","dateString":"23","monthString":"Feb","title":"Thu, Feb 23","YYYYMMDD":"20230223"},{"showID":101,"dateShow":"2023-04-15T19:30:00","dateDoors":"2023-04-15T18:00:00","dateLots":"","timeZone":"America/Los_Angeles","venue":"Climate Pledge Arena","altName":"Seattle","notes":"Capacity: 17,459","address":"334 1st Ave N","city":"Seattle","state":"WA","postal":"98109","country":"USA","phoneNbr":"206-752-7600","venueURL":"https://climatepledgearena.com/","setlistURL":"http://phish.net/setlists/?d=2023-04-15","seatingURL":"https://maps.ticketmaster.com/maps/geometry/3/event/0F005E29A8C526D8/staticImage?type=png&systemId=HOST","lat":"0.0","lng":"0.0","confidence":"0","placesPhotoReference":"","placesID":"","dateString":"23","monthString":"Feb","title":"Thu, Feb 23","YYYYMMDD":"20230223"},{"showID":102,"dateShow":"2023-04-17T18:00:00","dateDoors":"2023-04-17T17:00:00","dateLots":"","timeZone":"America/Los_Angeles","venue":"The Greek Theatre","altName":"Berkeley","notes":"Capacity: 8,500","address":"2001 Gayley Rd","city":"Berkeley","state":"CA","postal":"94270","country":"USA","phoneNbr":"510-871-9225","venueURL":"https://thegreekberkeley.com/","setlistURL":"http://phish.net/setlists/?d=2023-04-17","seatingURL":"https://maps.ticketmaster.com/maps/geometry/3/event/1C005E29E7A857B4/staticImage?type=png&systemId=HOST","lat":"0.0","lng":"0.0","confidence":"0","placesPhotoReference":"","placesID":"","dateString":"23","monthString":"Feb","title":"Thu, Feb 23","YYYYMMDD":"20230223"},{"showID":103,"dateShow":"2023-04-18T18:00:00","dateDoors":"2023-04-18T17:00:00","dateLots":"","timeZone":"America/Los_Angeles","venue":"The Greek Theatre","altName":"Berkeley","notes":"Capacity: 8,500","address":"2001 Gayley Rd","city":"Berkeley","state":"CA","postal":"94270","country":"USA","phoneNbr":"510-871-9225","venueURL":"https://thegreekberkeley.com/","setlistURL":"http://phish.net/setlists/?d=2023-04-18","seatingURL":"https://maps.ticketmaster.com/maps/geometry/3/event/1C005E29E7A857B4/staticImage?type=png&systemId=HOST","lat":"0.0","lng":"0.0","confidence":"0","placesPhotoReference":"","placesID":"","dateString":"23","monthString":"Feb","title":"Thu, Feb 23","YYYYMMDD":"20230223"},{"showID":104,"dateShow":"2023-04-19T18:00:00","dateDoors":"2023-04-19T17:00:00","dateLots":"","timeZone":"America/Los_Angeles","venue":"The Greek Theatre","altName":"Berkeley","notes":"Capacity: 8,500","address":"2001 Gayley Rd","city":"Berkeley","state":"CA","postal":"94270","country":"USA","phoneNbr":"510-871-9225","venueURL":"https://thegreekberkeley.com/","setlistURL":"http://phish.net/setlists/?d=2023-04-19","seatingURL":"https://maps.ticketmaster.com/maps/geometry/3/event/1C005E29E7A857B4/staticImage?type=png&systemId=HOST","lat":"0.0","lng":"0.0","confidence":"0","placesPhotoReference":"","placesID":"","dateString":"23","monthString":"Feb","title":"Thu, Feb 23","YYYYMMDD":"20230223"},{"showID":105,"dateShow":"2023-04-21T19:00:00","dateDoors":"2023-04-21T17:00:00","dateLots":"","timeZone":"America/Los_Angeles","venue":"Hollywood Bowl","altName":"Los Angeles","notes":"Capacity: 17,500","address":"2301 N Highland Ave","city":"Los Angeles","state":"CA","postal":"90068","country":"USA","phoneNbr":"323-850-2000","venueURL":"https://www.hollywoodbowl.com/","setlistURL":"http://phish.net/setlists/?d=2023-04-21","seatingURL":"https://maps.ticketmaster.com/maps/geometry/3/event/0B005D3DDCC12B04/staticImage?type=png&systemId=HOST","lat":"0.0","lng":"0.0","confidence":"0","placesPhotoReference":"","placesID":"","dateString":"23","monthString":"Feb","title":"Thu, Feb 23","YYYYMMDD":"20230223"},{"showID":106,"dateShow":"2023-04-22T19:00:00","dateDoors":"2023-04-22T17:00:00","dateLots":"","timeZone":"America/Los_Angeles","venue":"Hollywood Bowl","altName":"Los Angeles","notes":"Capacity: 17,500","address":"2301 N Highland Ave","city":"Los Angeles","state":"CA","postal":"90068","country":"USA","phoneNbr":"323-850-2000","venueURL":"https://www.hollywoodbowl.com/","setlistURL":"http://phish.net/setlists/?d=2023-04-22","seatingURL":"https://maps.ticketmaster.com/maps/geometry/3/event/0B005D3DDCC12B04/staticImage?type=png&systemId=HOST","lat":"0.0","lng":"0.0","confidence":"0","placesPhotoReference":"","placesID":"","dateString":"23","monthString":"Feb","title":"Thu, Feb 23","YYYYMMDD":"20230223"},{"showID":107,"dateShow":"2023-04-23T19:00:00","dateDoors":"2023-04-23T17:00:00","dateLots":"","timeZone":"America/Los_Angeles","venue":"Hollywood Bowl","altName":"Los Angeles","notes":"Capacity: 17,500","address":"2301 N Highland Ave","city":"Los Angeles","state":"CA","postal":"90068","country":"USA","phoneNbr":"323-850-2000","venueURL":"https://www.hollywoodbowl.com/","setlistURL":"http://phish.net/setlists/?d=2023-04-23","seatingURL":"https://maps.ticketmaster.com/maps/geometry/3/event/0B005D3DDCC12B04/staticImage?type=png&systemId=HOST","lat":"0.0","lng":"0.0","confidence":"0","placesPhotoReference":"","placesID":"","dateString":"23","monthString":"Feb","title":"Thu, Feb 23","YYYYMMDD":"20230223"}]