[{"showID":200,"dateShow":"2023-07-11T19:00:00","dateDoors":"2023-07-11T17:30:00","dateLots":"2023-07-11T15:30:00","timeZone":"America/Chicago","venue":"Orion Amphitheater","altName":"Huntsville","notes":"Capacity: 8,000","address":"701 Amphitheater Dr NW","city":"Huntsville","state":"AR","postal":"35806","country":"USA","phoneNbr":"256-964-9556","venueURL":"https://www.theorionhuntsville.com/","setlistURL":"http://phish.net/setlists/?d=2023-07-11","seatingURL":"https://www.theorionhuntsville.com/assets/img/Orion-Amphitheater-Unbranded-Seating-Chart-71c19728a6.JPG","lat":"0.0","lng":"0.0","confidence":"0","placesPhotoReference":"","placesID":"","dateString":"14","monthString":"Apr","title":"Fri, Apr 14","YYYYMMDD":"20230414"},{"showID":201,"dateShow":"2023-07-12T19:00:00","dateDoors":"2023-07-12T17:30:00","dateLots":"2023-07-12T15:30:00","timeZone":"America/Chicago","venue":"Orion Amphitheater","altName":"Huntsville","notes":"Capacity: 8,000","address":"701 Amphitheater Dr NW","city":"Huntsville","state":"AR","postal":"35806","country":"USA","phoneNbr":"256-964-9556","venueURL":"https://www.theorionhuntsville.com/","setlistURL":"http://phish.net/setlists/?d=2023-07-12","seatingURL":"https://www.theorionhuntsville.com/assets/img/Orion-Amphitheater-Unbranded-Seating-Chart-71c19728a6.JPG","lat":"0.0","lng":"0.0","confidence":"0","placesPhotoReference":"","placesID":"","dateString":"14","monthString":"Apr","title":"Fri, Apr 14","YYYYMMDD":"20230414"},{"showID":202,"dateShow":"2023-07-14T19:30:00","dateDoors":"2023-07-14T18:00:00","dateLots":"","timeZone":"America/New_York","venue":"Ameris Bank Amphitheatre","altName":"Alpharetta","notes":"Capacity: 12,000","address":"2200 Encore Pkwy","city":"Alpharetta","state":"GA","postal":"30009","country":"USA","phoneNbr":"256-964-9556","venueURL":"https://www.livenation.com/venue/KovZpZAFFdlA/ameris-bank-amphitheatre-events","setlistURL":"http://phish.net/setlists/?d=2023-07-14","seatingURL":"https://s1.ticketm.net/tmimages/venue/maps/atl/42284s.gif","lat":"0.0","lng":"0.0","confidence":"0","placesPhotoReference":"","placesID":"","dateString":"14","monthString":"Apr","title":"Fri, Apr 14","YYYYMMDD":"20230414"},{"showID":203,"dateShow":"2023-07-15T19:30:00","dateDoors":"2023-07-15T18:00:00","dateLots":"","timeZone":"America/New_York","venue":"Ameris Bank Amphitheatre","altName":"Alpharetta","notes":"Capacity: 12,000","address":"2200 Encore Pkwy","city":"Alpharetta","state":"GA","postal":"30009","country":"USA","phoneNbr":"256-964-9556","venueURL":"https://www.livenation.com/venue/KovZpZAFFdlA/ameris-bank-amphitheatre-events","setlistURL":"http://phish.net/setlists/?d=2023-07-15","seatingURL":"https://s1.ticketm.net/tmimages/venue/maps/atl/42284s.gif","lat":"0.0","lng":"0.0","confidence":"0","placesPhotoReference":"","placesID":"","dateString":"14","monthString":"Apr","title":"Fri, Apr 14","YYYYMMDD":"20230414"},{"showID":204,"dateShow":"2023-07-16T19:30:00","dateDoors":"2023-07-16T18:00:00","dateLots":"","timeZone":"America/New_York","venue":"Ameris Bank Amphitheatre","altName":"Alpharetta","notes":"Capacity: 12,000","address":"2200 Encore Pkwy","city":"Alpharetta","state":"GA","postal":"30009","country":"USA","phoneNbr":"256-964-9556","venueURL":"https://www.livenation.com/venue/KovZpZAFFdlA/ameris-bank-amphitheatre-events","setlistURL":"http://phish.net/setlists/?d=2023-07-16","seatingURL":"https://s1.ticketm.net/tmimages/venue/maps/atl/42284s.gif","lat":"0.0","lng":"0.0","confidence":"0","placesPhotoReference":"","placesID":"","dateString":"14","monthString":"Apr","title":"Fri, Apr 14","YYYYMMDD":"20230414"},{"showID":205,"dateShow":"2023-07-18T19:30:00","dateDoors":"2023-07-18T17:30:00","dateLots":"","timeZone":"America/New_York","venue":"Live Oak Bank Pavilion","altName":"Wilmington","notes":"Capacity: 7,200","address":"10 Cowan St","city":"Wilmington","state":"NC","postal":"28401","country":"USA","phoneNbr":"910-343-3614","venueURL":"https://www.livenation.com/venue/KovZ917A0DZ/live-oak-bank-pavilion-events","setlistURL":"http://phish.net/setlists/?d=2023-07-18","seatingURL":"https://maps.ticketmaster.com/maps/geometry/3/event/2D005D7EDC6D6365/staticImage?type=png&systemId=HOST","lat":"0.0","lng":"0.0","confidence":"0","placesPhotoReference":"","placesID":"","dateString":"14","monthString":"Apr","title":"Fri, Apr 14","YYYYMMDD":"20230414"},{"showID":206,"dateShow":"2023-07-19T19:30:00","dateDoors":"2023-07-19T17:30:00","dateLots":"","timeZone":"America/New_York","venue":"Live Oak Bank Pavilion","altName":"Wilmington","notes":"Capacity: 7,200","address":"10 Cowan St","city":"Wilmington","state":"NC","postal":"28401","country":"USA","phoneNbr":"910-343-3614","venueURL":"https://www.livenation.com/venue/KovZ917A0DZ/live-oak-bank-pavilion-events","setlistURL":"http://phish.net/setlists/?d=2023-07-19","seatingURL":"https://maps.ticketmaster.com/maps/geometry/3/event/2D005D7EDC6D6365/staticImage?type=png&systemId=HOST","lat":"0.0","lng":"0.0","confidence":"0","placesPhotoReference":"","placesID":"","dateString":"14","monthString":"Apr","title":"Fri, Apr 14","YYYYMMDD":"20230414"},{"showID":207,"dateShow":"2023-07-21T19:00:00","dateDoors":"2023-07-21T17:30:00","dateLots":"2023-07-21T15:30:00","timeZone":"America/New_York","venue":"The Pavilion at Star Lake","altName":"Burgettstown","notes":"Capacity: 23,000","address":"665 PA-18","city":"Burgettstown","state":"PA","postal":"15021","country":"USA","phoneNbr":"724-947-7400","venueURL":"https://www.livenation.com/venue/KovZpZAEk71A/the-pavilion-at-star-lake-events","setlistURL":"http://phish.net/setlists/?d=2023-07-21","seatingURL":"https://maps.ticketmaster.com/maps/geometry/3/event/16005E34D00C5C16/staticImage?type=png&systemId=HOST","lat":"0.0","lng":"0.0","confidence":"0","placesPhotoReference":"","placesID":"","dateString":"14","monthString":"Apr","title":"Fri, Apr 14","YYYYMMDD":"20230414"},{"showID":208,"dateShow":"2023-07-22T19:00:00","dateDoors":"2023-07-22T17:30:00","dateLots":"2023-07-22T15:30:00","timeZone":"America/New_York","venue":"The Pavilion at Star Lake","altName":"Burgettstown","notes":"Capacity: 23,000","address":"665 PA-18","city":"Burgettstown","state":"PA","postal":"15021","country":"USA","phoneNbr":"724-947-7400","venueURL":"https://www.livenation.com/venue/KovZpZAEk71A/the-pavilion-at-star-lake-events","setlistURL":"http://phish.net/setlists/?d=2023-07-22","seatingURL":"https://maps.ticketmaster.com/maps/geometry/3/event/16005E34D00C5C16/staticImage?type=png&systemId=HOST","lat":"0.0","lng":"0.0","confidence":"0","placesPhotoReference":"","placesID":"","dateString":"14","monthString":"Apr","title":"Fri, Apr 14","YYYYMMDD":"20230414"},{"showID":209,"dateShow":"2023-07-23T19:00:00","dateDoors":"2023-07-23T17:30:00","dateLots":"","timeZone":"America/New_York","venue":"St. Josephâ€™s Health Amphitheater","altName":"Syracuse","notes":"Capacity: 17,500","address":"490 Restoration Way","city":"Syracuse","state":"NY","postal":"13209","country":"USA","phoneNbr":"315-435-5100","venueURL":"https://www.asmsyracuse.com/p/amphitheater","setlistURL":"http://phish.net/setlists/?d=2023-07-23","seatingURL":"https://maps.ticketmaster.com/maps/geometry/3/event/00005E4A99A12DEA/staticImage?type=png&systemId=HOST","lat":"0.0","lng":"0.0","confidence":"0","placesPhotoReference":"","placesID":"","dateString":"14","monthString":"Apr","title":"Fri, Apr 14","YYYYMMDD":"20230414"},{"showID":210,"dateShow":"2023-07-25T19:30:00","dateDoors":"2023-07-25T18:00:00","dateLots":"","timeZone":"America/New_York","venue":"TD Pavilion at the Mann","altName":"Philadelphia","notes":"Capacity: 14,000","address":"5201 Parkside Ave","city":"Philadelphia","state":"PA","postal":"19131","country":"USA","phoneNbr":"215-546-7900","venueURL":"https://manncenter.org/","setlistURL":"http://phish.net/setlists/?d=2023-07-25","seatingURL":"https://maps.ticketmaster.com/maps/geometry/3/event/02005E4BA149248E/staticImage?type=png&systemId=HOST","lat":"0.0","lng":"0.0","confidence":"0","placesPhotoReference":"","placesID":"","dateString":"14","monthString":"Apr","title":"Fri, Apr 14","YYYYMMDD":"20230414"},{"showID":211,"dateShow":"2023-07-26T19:30:00","dateDoors":"2023-07-26T18:00:00","dateLots":"","timeZone":"America/New_York","venue":"TD Pavilion at the Mann","altName":"Philadelphia","notes":"Capacity: 14,000","address":"5201 Parkside Ave","city":"Philadelphia","state":"PA","postal":"19131","country":"USA","phoneNbr":"215-546-7900","venueURL":"https://manncenter.org/","setlistURL":"http://phish.net/setlists/?d=2023-07-26","seatingURL":"https://maps.ticketmaster.com/maps/geometry/3/event/02005E4BA149248E/staticImage?type=png&systemId=HOST","lat":"0.0","lng":"0.0","confidence":"0","placesPhotoReference":"","placesID":"","dateString":"14","monthString":"Apr","title":"Fri, Apr 14","YYYYMMDD":"20230414"},{"showID":212,"dateShow":"2023-07-28T19:30:00","dateDoors":"2023-07-28T18:30:00","dateLots":"","timeZone":"America/New_York","venue":"Madison Square Garden","altName":"New York","notes":"Capacity: 20,879","address":"4 Pennsylvania Plaza","city":"New York","state":"NY","postal":"10001","country":"USA","phoneNbr":"212-465-6741","venueURL":"https://www.msg.com/madison-square-garden","setlistURL":"http://phish.net/setlists/?d=2023-07-28","seatingURL":"https://maps.ticketmaster.com/maps/geometry/3/event/3B005E4BCF2417EE/staticImage?type=png&systemId=HOST","lat":"0.0","lng":"0.0","confidence":"0","placesPhotoReference":"","placesID":"","dateString":"14","monthString":"Apr","title":"Fri, Apr 14","YYYYMMDD":"20230414"},{"showID":213,"dateShow":"2023-07-29T19:30:00","dateDoors":"2023-07-29T18:30:00","dateLots":"","timeZone":"America/New_York","venue":"Madison Square Garden","altName":"New York","notes":"Capacity: 20,879","address":"4 Pennsylvania Plaza","city":"New York","state":"NY","postal":"10001","country":"USA","phoneNbr":"212-465-6741","venueURL":"https://www.msg.com/madison-square-garden","setlistURL":"http://phish.net/setlists/?d=2023-07-29","seatingURL":"https://maps.ticketmaster.com/maps/geometry/3/event/3B005E4BCF2417EE/staticImage?type=png&systemId=HOST","lat":"0.0","lng":"0.0","confidence":"0","placesPhotoReference":"","placesID":"","dateString":"14","monthString":"Apr","title":"Fri, Apr 14","YYYYMMDD":"20230414"},{"showID":214,"dateShow":"2023-07-30T19:30:00","dateDoors":"2023-07-30T18:30:00","dateLots":"","timeZone":"America/New_York","venue":"Madison Square Garden","altName":"New York","notes":"Capacity: 20,879","address":"4 Pennsylvania Plaza","city":"New York","state":"NY","postal":"10001","country":"USA","phoneNbr":"212-465-6741","venueURL":"https://www.msg.com/madison-square-garden","setlistURL":"http://phish.net/setlists/?d=2023-07-30","seatingURL":"https://maps.ticketmaster.com/maps/geometry/3/event/3B005E4BCF2417EE/staticImage?type=png&systemId=HOST","lat":"0.0","lng":"0.0","confidence":"0","placesPhotoReference":"","placesID":"","dateString":"14","monthString":"Apr","title":"Fri, Apr 14","YYYYMMDD":"20230414"},{"showID":215,"dateShow":"2023-08-01T19:30:00","dateDoors":"2023-08-01T18:30:00","dateLots":"","timeZone":"America/New_York","venue":"Madison Square Garden","altName":"New York","notes":"Capacity: 20,879","address":"4 Pennsylvania Plaza","city":"New York","state":"NY","postal":"10001","country":"USA","phoneNbr":"212-465-6741","venueURL":"https://www.msg.com/madison-square-garden","setlistURL":"http://phish.net/setlists/?d=2023-08-01","seatingURL":"https://maps.ticketmaster.com/maps/geometry/3/event/3B005E4BCF2417EE/staticImage?type=png&systemId=HOST","lat":"0.0","lng":"0.0","confidence":"0","placesPhotoReference":"","placesID":"","dateString":"14","monthString":"Apr","title":"Fri, Apr 14","YYYYMMDD":"20230414"},{"showID":216,"dateShow":"2023-08-02T19:30:00","dateDoors":"2023-08-02T18:30:00","dateLots":"","timeZone":"America/New_York","venue":"Madison Square Garden","altName":"New York","notes":"Capacity: 20,879","address":"4 Pennsylvania Plaza","city":"New York","state":"NY","postal":"10001","country":"USA","phoneNbr":"212-465-6741","venueURL":"https://www.msg.com/madison-square-garden","setlistURL":"http://phish.net/setlists/?d=2023-08-02","seatingURL":"https://maps.ticketmaster.com/maps/geometry/3/event/3B005E4BCF2417EE/staticImage?type=png&systemId=HOST","lat":"0.0","lng":"0.0","confidence":"0","placesPhotoReference":"","placesID":"","dateString":"14","monthString":"Apr","title":"Fri, Apr 14","YYYYMMDD":"20230414"},{"showID":217,"dateShow":"2023-08-04T19:30:00","dateDoors":"2023-08-04T18:30:00","dateLots":"","timeZone":"America/New_York","venue":"Madison Square Garden","altName":"New York","notes":"Capacity: 20,879","address":"4 Pennsylvania Plaza","city":"New York","state":"NY","postal":"10001","country":"USA","phoneNbr":"212-465-6741","venueURL":"https://www.msg.com/madison-square-garden","setlistURL":"http://phish.net/setlists/?d=2023-08-04","seatingURL":"https://maps.ticketmaster.com/maps/geometry/3/event/3B005E4BCF2417EE/staticImage?type=png&systemId=HOST","lat":"0.0","lng":"0.0","confidence":"0","placesPhotoReference":"","placesID":"","dateString":"14","monthString":"Apr","title":"Fri, Apr 14","YYYYMMDD":"20230414"},{"showID":218,"dateShow":"2023-08-05T19:30:00","dateDoors":"2023-08-05T18:30:00","dateLots":"","timeZone":"America/New_York","venue":"Madison Square Garden","altName":"New York","notes":"Capacity: 20,879","address":"4 Pennsylvania Plaza","city":"New York","state":"NY","postal":"10001","country":"USA","phoneNbr":"212-465-6741","venueURL":"https://www.msg.com/madison-square-garden","setlistURL":"http://phish.net/setlists/?d=2023-08-05","seatingURL":"https://maps.ticketmaster.com/maps/geometry/3/event/3B005E4BCF2417EE/staticImage?type=png&systemId=HOST","lat":"0.0","lng":"0.0","confidence":"0","placesPhotoReference":"","placesID":"","dateString":"14","monthString":"Apr","title":"Fri, Apr 14","YYYYMMDD":"20230414"},{"showID":219,"dateShow":"2023-08-31T19:30:00","dateDoors":"2023-08-31T18:30:00","dateLots":"2023-08-31T15:00:00","timeZone":"America/Denver","venue":"Dick's Sporting Goods Park","altName":"Commerce City","notes":"Capacity: 27,000","address":"6000 Victory Way","city":"Commerce City","state":"CO","postal":"80022","country":"USA","phoneNbr":"303-727-3500","venueURL":"https://www.dickssportinggoodspark.com/","setlistURL":"http://phish.net/setlists/?d=2023-08-31","seatingURL":"https://maps.ticketmaster.com/maps/geometry/3/event/3B005E4BCF2417EE/staticImage?type=png&systemId=HOSThttps://www.dickssportinggoodspark.com/media/yyldfuam/2022-dsgp_staff_reference_card_front.jpg","lat":"0.0","lng":"0.0","confidence":"0","placesPhotoReference":"","placesID":"","dateString":"14","monthString":"Apr","title":"Fri, Apr 14","YYYYMMDD":"20230414"},{"showID":220,"dateShow":"2023-09-01T19:30:00","dateDoors":"2023-09-01T18:30:00","dateLots":"2023-09-01T15:00:00","timeZone":"America/Denver","venue":"Dick's Sporting Goods Park","altName":"Commerce City","notes":"Capacity: 27,000","address":"6000 Victory Way","city":"Commerce City","state":"CO","postal":"80022","country":"USA","phoneNbr":"303-727-3500","venueURL":"https://www.dickssportinggoodspark.com/","setlistURL":"http://phish.net/setlists/?d=2023-09-01","seatingURL":"https://maps.ticketmaster.com/maps/geometry/3/event/3B005E4BCF2417EE/staticImage?type=png&systemId=HOSThttps://www.dickssportinggoodspark.com/media/yyldfuam/2022-dsgp_staff_reference_card_front.jpg","lat":"0.0","lng":"0.0","confidence":"0","placesPhotoReference":"","placesID":"","dateString":"14","monthString":"Apr","title":"Fri, Apr 14","YYYYMMDD":"20230414"},{"showID":221,"dateShow":"2023-09-02T19:30:00","dateDoors":"2023-09-02T18:30:00","dateLots":"2023-09-02T15:00:00","timeZone":"America/Denver","venue":"Dick's Sporting Goods Park","altName":"Commerce City","notes":"Capacity: 27,000","address":"6000 Victory Way","city":"Commerce City","state":"CO","postal":"80022","country":"USA","phoneNbr":"303-727-3500","venueURL":"https://www.dickssportinggoodspark.com/","setlistURL":"http://phish.net/setlists/?d=2023-09-02","seatingURL":"https://maps.ticketmaster.com/maps/geometry/3/event/3B005E4BCF2417EE/staticImage?type=png&systemId=HOSThttps://www.dickssportinggoodspark.com/media/yyldfuam/2022-dsgp_staff_reference_card_front.jpg","lat":"0.0","lng":"0.0","confidence":"0","placesPhotoReference":"","placesID":"","dateString":"14","monthString":"Apr","title":"Fri, Apr 14","YYYYMMDD":"20230414"},{"showID":222,"dateShow":"2023-09-03T19:30:00","dateDoors":"2023-09-03T18:30:00","dateLots":"2023-09-03T15:00:00","timeZone":"America/Denver","venue":"Dick's Sporting Goods Park","altName":"Commerce City","notes":"Capacity: 27,000","address":"6000 Victory Way","city":"Commerce City","state":"CO","postal":"80022","country":"USA","phoneNbr":"303-727-3500","venueURL":"https://www.dickssportinggoodspark.com/","setlistURL":"http://phish.net/setlists/?d=2023-09-03","seatingURL":"https://maps.ticketmaster.com/maps/geometry/3/event/3B005E4BCF2417EE/staticImage?type=png&systemId=HOSThttps://www.dickssportinggoodspark.com/media/yyldfuam/2022-dsgp_staff_reference_card_front.jpg","lat":"0.0","lng":"0.0","confidence":"0","placesPhotoReference":"","placesID":"","dateString":"14","monthString":"Apr","title":"Fri, Apr 14","YYYYMMDD":"20230414"}]