[{"showID":24,"dateShow":"2025-09-13T19:00:00","dateDoors":"","dateLots":"","timeZone":"America/Chicago","venue":"Coca-Cola Amphitheater","altName":"Birmingham","notes":"Capacity: 9,300","address":"2350 15th Ave N","city":"Birmingham","state":"AL","postal":"35234","country":"USA","phoneNbr":"","venueURL":"https://www.coca-colaamphitheater.com/visit","setlistURL":"http://phish.net/setlists/?d=2025-09-13","seatingURL":"https://mapsapi.tmol.io/maps/geometry/3/event/20006235A15B13DF/staticImage?type=png&systemId=HOST","lat":"0.0","lng":"0.0","confidence":"0","placesPhotoReference":"","placesID":"","dateString":"12","monthString":"Sep","title":"Fri, Sep 12","YYYYMMDD":"20250912"},{"showID":25,"dateShow":"2025-09-14T19:00:00","dateDoors":"","dateLots":"","timeZone":"America/Chicago","venue":"Coca-Cola Amphitheater","altName":"Birmingham","notes":"Capacity: 9,300","address":"2350 15th Ave N","city":"Birmingham","state":"AL","postal":"35234","country":"USA","phoneNbr":"","venueURL":"https://www.coca-colaamphitheater.com/visit","setlistURL":"http://phish.net/setlists/?d=2025-09-14","seatingURL":"https://mapsapi.tmol.io/maps/geometry/3/event/20006235A15B13DF/staticImage?type=png&systemId=HOST","lat":"0.0","lng":"0.0","confidence":"0","placesPhotoReference":"","placesID":"","dateString":"12","monthString":"Sep","title":"Fri, Sep 12","YYYYMMDD":"20250912"},{"showID":26,"dateShow":"2025-09-16T19:00:00","dateDoors":"","dateLots":"","timeZone":"America/New_York","venue":"Ameris Bank Amphitheatre","altName":"Alpharetta","notes":"Capacity: 12,000","address":"2200 Encore Pkwy","city":"Alpharetta","state":"GA","postal":"30009","country":"USA","phoneNbr":"404-733-5010","venueURL":"https://www.amerisbankampatl.com/","setlistURL":"http://phish.net/setlists/?d=2025-09-16","seatingURL":"https://mapsapi.tmol.io/maps/geometry/3/event/0E00618DC34D4AC7/staticImage?type=png&systemId=HOST","lat":"0.0","lng":"0.0","confidence":"0","placesPhotoReference":"","placesID":"","dateString":"12","monthString":"Sep","title":"Fri, Sep 12","YYYYMMDD":"20250912"},{"showID":27,"dateShow":"2025-09-17T19:00:00","dateDoors":"","dateLots":"","timeZone":"America/New_York","venue":"Ameris Bank Amphitheatre","altName":"Alpharetta","notes":"Capacity: 12,000","address":"2200 Encore Pkwy","city":"Alpharetta","state":"GA","postal":"30009","country":"USA","phoneNbr":"404-733-5010","venueURL":"https://www.amerisbankampatl.com/","setlistURL":"http://phish.net/setlists/?d=2025-09-17","seatingURL":"https://mapsapi.tmol.io/maps/geometry/3/event/0E00618DC34D4AC7/staticImage?type=png&systemId=HOST","lat":"0.0","lng":"0.0","confidence":"0","placesPhotoReference":"","placesID":"","dateString":"12","monthString":"Sep","title":"Fri, Sep 12","YYYYMMDD":"20250912"},{"showID":28,"dateShow":"2025-09-19T19:30:00","dateDoors":"","dateLots":"","timeZone":"America/New_York","venue":"Hampton Coliseum","altName":"Hampton","notes":"Capacity: 12,999","address":"1000 Coliseum Dr","city":"Hampton","state":"VA","postal":"23666","country":"USA","phoneNbr":"757-838-4203","venueURL":"https://www.hamptoncoliseum.org/","setlistURL":"http://phish.net/setlists/?d=2025-09-19","seatingURL":"https://mapsapi.tmol.io/maps/geometry/3/event/0100624E9AC6461D/staticImage?type=png&systemId=HOST","lat":"0.0","lng":"0.0","confidence":"0","placesPhotoReference":"","placesID":"","dateString":"12","monthString":"Sep","title":"Fri, Sep 12","YYYYMMDD":"20250912"},{"showID":29,"dateShow":"2025-09-20T19:30:00","dateDoors":"","dateLots":"","timeZone":"America/New_York","venue":"Hampton Coliseum","altName":"Hampton","notes":"Capacity: 12,999","address":"1000 Coliseum Dr","city":"Hampton","state":"VA","postal":"23666","country":"USA","phoneNbr":"757-838-4203","venueURL":"https://www.hamptoncoliseum.org/","setlistURL":"http://phish.net/setlists/?d=2025-09-20","seatingURL":"https://mapsapi.tmol.io/maps/geometry/3/event/0100624E9AC6461D/staticImage?type=png&systemId=HOST","lat":"0.0","lng":"0.0","confidence":"0","placesPhotoReference":"","placesID":"","dateString":"12","monthString":"Sep","title":"Fri, Sep 12","YYYYMMDD":"20250912"},{"showID":30,"dateShow":"2025-09-21T19:30:00","dateDoors":"","dateLots":"","timeZone":"America/New_York","venue":"Hampton Coliseum","altName":"Hampton","notes":"Capacity: 12,999","address":"1000 Coliseum Dr","city":"Hampton","state":"VA","postal":"23666","country":"USA","phoneNbr":"757-838-4203","venueURL":"https://www.hamptoncoliseum.org/","setlistURL":"http://phish.net/setlists/?d=2025-09-21","seatingURL":"https://mapsapi.tmol.io/maps/geometry/3/event/0100624E9AC6461D/staticImage?type=png&systemId=HOST","lat":"0.0","lng":"0.0","confidence":"0","placesPhotoReference":"","placesID":"","dateString":"12","monthString":"Sep","title":"Fri, Sep 12","YYYYMMDD":"20250912"}]