[{"showID":100,"dateShow":"2025-04-18T19:30:00","dateDoors":"2025-04-18T18:00:00","dateLots":"","timeZone":"America/Los_Angeles","venue":"Climate Pledge Arena","altName":"Seattle","notes":"Capacity: 17,459","address":"334 1st Ave N","city":"Seattle","state":"WA","postal":"98109","country":"USA","phoneNbr":"206-752-7600","venueURL":"https://climatepledgearena.com/","setlistURL":"http://phish.net/setlists/?d=2025-04-18","seatingURL":"https://mapsapi.tmol.io/maps/geometry/3/event/0F00612C85B43E59/staticImage?type=png&systemId=HOST","lat":"0.0","lng":"0.0","confidence":"0","placesPhotoReference":"","placesID":"","dateString":"25","monthString":"Oct","title":"Fri, Oct 25","YYYYMMDD":"20241025"},{"showID":101,"dateShow":"2025-04-19T19:30:00","dateDoors":"2025-04-19T18:00:00","dateLots":"","timeZone":"America/Los_Angeles","venue":"Climate Pledge Arena","altName":"Seattle","notes":"Capacity: 17,459","address":"334 1st Ave N","city":"Seattle","state":"WA","postal":"98109","country":"USA","phoneNbr":"206-752-7600","venueURL":"https://climatepledgearena.com/","setlistURL":"http://phish.net/setlists/?d=2025-04-19","seatingURL":"https://mapsapi.tmol.io/maps/geometry/3/event/0F00612C85B43E59/staticImage?type=png&systemId=HOST","lat":"0.0","lng":"0.0","confidence":"0","placesPhotoReference":"","placesID":"","dateString":"25","monthString":"Oct","title":"Fri, Oct 25","YYYYMMDD":"20241025"},{"showID":102,"dateShow":"2025-04-20T19:30:00","dateDoors":"2025-04-20T18:00:00","dateLots":"","timeZone":"America/Los_Angeles","venue":"Moda Center","altName":"Portland","notes":"","address":"1 N Center Ct St","city":"Portland","state":"OR","postal":"97227","country":"USA","phoneNbr":"503-235-8771","venueURL":"https://www.rosequarter.com/about-us/our-venues","setlistURL":"http://phish.net/setlists/?d=2025-04-20","seatingURL":"https://mapsapi.tmol.io/maps/geometry/3/event/0F00612C98874B30/staticImage?type=png&systemId=HOST","lat":"0.0","lng":"0.0","confidence":"0","placesPhotoReference":"","placesID":"","dateString":"25","monthString":"Oct","title":"Fri, Oct 25","YYYYMMDD":"20241025"},{"showID":103,"dateShow":"2025-04-22T19:30:00","dateDoors":"2025-04-22T18:00:00","dateLots":"","timeZone":"America/Los_Angeles","venue":"Bill Graham Civic Auditorium","altName":"San Francisco","notes":"Capacity: 8,500","address":"99 Grove St","city":"San Francisco","state":"CA","postal":"94102","country":"USA","phoneNbr":"","venueURL":"https://billgrahamcivic.com/","setlistURL":"http://phish.net/setlists/?d=2025-04-22","seatingURL":"https://mapsapi.tmol.io/maps/geometry/3/event/1C006182C3772005/staticImage?type=png&systemId=HOST","lat":"0.0","lng":"0.0","confidence":"0","placesPhotoReference":"","placesID":"","dateString":"25","monthString":"Oct","title":"Fri, Oct 25","YYYYMMDD":"20241025"},{"showID":104,"dateShow":"2025-04-23T19:30:00","dateDoors":"2025-04-23T18:00:00","dateLots":"","timeZone":"America/Los_Angeles","venue":"Bill Graham Civic Auditorium","altName":"San Francisco","notes":"Capacity: 8,500","address":"99 Grove St","city":"San Francisco","state":"CA","postal":"94102","country":"USA","phoneNbr":"","venueURL":"https://billgrahamcivic.com/","setlistURL":"http://phish.net/setlists/?d=2025-04-23","seatingURL":"https://mapsapi.tmol.io/maps/geometry/3/event/1C006182C3772005/staticImage?type=png&systemId=HOST","lat":"0.0","lng":"0.0","confidence":"0","placesPhotoReference":"","placesID":"","dateString":"25","monthString":"Oct","title":"Fri, Oct 25","YYYYMMDD":"20241025"},{"showID":105,"dateShow":"2025-04-25T19:30:00","dateDoors":"2025-04-25T18:00:00","dateLots":"","timeZone":"America/Los_Angeles","venue":"Hollywood Bowl","altName":"Los Angeles","notes":"Capacity: 17,500","address":"2301 N Highland Ave","city":"Los Angeles","state":"CA","postal":"90068","country":"USA","phoneNbr":"323-850-2000","venueURL":"https://www.hollywoodbowl.com/","setlistURL":"http://phish.net/setlists/?d=2025-04-25","seatingURL":"https://mapsapi.tmol.io/maps/geometry/3/event/0B00615124A94ACA/staticImage?type=png&systemId=HOST","lat":"0.0","lng":"0.0","confidence":"0","placesPhotoReference":"","placesID":"","dateString":"25","monthString":"Oct","title":"Fri, Oct 25","YYYYMMDD":"20241025"},{"showID":106,"dateShow":"2025-04-26T19:30:00","dateDoors":"2025-04-26T18:00:00","dateLots":"","timeZone":"America/Los_Angeles","venue":"Hollywood Bowl","altName":"Los Angeles","notes":"Capacity: 17,500","address":"2301 N Highland Ave","city":"Los Angeles","state":"CA","postal":"90068","country":"USA","phoneNbr":"323-850-2000","venueURL":"https://www.hollywoodbowl.com/","setlistURL":"http://phish.net/setlists/?d=2025-04-26","seatingURL":"https://mapsapi.tmol.io/maps/geometry/3/event/0B00615124A94ACA/staticImage?type=png&systemId=HOST","lat":"0.0","lng":"0.0","confidence":"0","placesPhotoReference":"","placesID":"","dateString":"25","monthString":"Oct","title":"Fri, Oct 25","YYYYMMDD":"20241025"},{"showID":107,"dateShow":"2025-04-27T19:30:00","dateDoors":"2025-04-27T18:00:00","dateLots":"","timeZone":"America/Los_Angeles","venue":"Hollywood Bowl","altName":"Los Angeles","notes":"Capacity: 17,500","address":"2301 N Highland Ave","city":"Los Angeles","state":"CA","postal":"90068","country":"USA","phoneNbr":"323-850-2000","venueURL":"https://www.hollywoodbowl.com/","setlistURL":"http://phish.net/setlists/?d=2025-04-27","seatingURL":"https://mapsapi.tmol.io/maps/geometry/3/event/0B00615124A94ACA/staticImage?type=png&systemId=HOST","lat":"0.0","lng":"0.0","confidence":"0","placesPhotoReference":"","placesID":"","dateString":"25","monthString":"Oct","title":"Fri, Oct 25","YYYYMMDD":"20241025"}]