[{"showID":200,"dateShow":"2024-04-18T19:30:00","dateDoors":"2024-02-18T18:00:00","dateLots":"","timeZone":"America/Los_Angeles","venue":"Sphere","altName":"Las Vegas","notes":"Capacinty: 18,600","address":"255 Sands Ave","city":"Las Vegas","state":"NV","postal":"89169","country":"USA","phoneNbr":"725-258-0001","venueURL":"https://www.thespherevegas.com/","setlistURL":"http://phish.net/setlists/?d=2024-04-18","seatingURL":"https://s3.amazonaws.com/prd218.tm-prod.tt.prod.us-east-1.tmaws-cdn/prod1/V2/0/fe/0fef4ede7547f5e1f7da76a99960b3fddd5ba53a.png","lat":"36.121217","lng":"-115.1620404","confidence":"1","placesPhotoReference":"","placesID":"","dateString":"21","monthString":"Feb","title":"Wed, Feb 21","YYYYMMDD":"20240221"},{"showID":201,"dateShow":"2024-04-19T19:30:00","dateDoors":"2024-02-19T18:00:00","dateLots":"","timeZone":"America/Los_Angeles","venue":"Sphere","altName":"Las Vegas","notes":"Capacinty: 18,600","address":"255 Sands Ave","city":"Las Vegas","state":"NV","postal":"89169","country":"USA","phoneNbr":"725-258-0001","venueURL":"https://www.thespherevegas.com/","setlistURL":"http://phish.net/setlists/?d=2024-04-19","seatingURL":"https://s3.amazonaws.com/prd218.tm-prod.tt.prod.us-east-1.tmaws-cdn/prod1/V2/0/fe/0fef4ede7547f5e1f7da76a99960b3fddd5ba53a.png","lat":"36.121217","lng":"-115.1620404","confidence":"1","placesPhotoReference":"","placesID":"","dateString":"21","monthString":"Feb","title":"Wed, Feb 21","YYYYMMDD":"20240221"},{"showID":202,"dateShow":"2024-04-20T19:30:00","dateDoors":"2024-02-20T18:00:00","dateLots":"","timeZone":"America/Los_Angeles","venue":"Sphere","altName":"Las Vegas","notes":"Capacinty: 18,600","address":"255 Sands Ave","city":"Las Vegas","state":"NV","postal":"89169","country":"USA","phoneNbr":"725-258-0001","venueURL":"https://www.thespherevegas.com/","setlistURL":"http://phish.net/setlists/?d=2024-04-20","seatingURL":"https://s3.amazonaws.com/prd218.tm-prod.tt.prod.us-east-1.tmaws-cdn/prod1/V2/0/fe/0fef4ede7547f5e1f7da76a99960b3fddd5ba53a.png","lat":"36.121217","lng":"-115.1620404","confidence":"1","placesPhotoReference":"","placesID":"","dateString":"21","monthString":"Feb","title":"Wed, Feb 21","YYYYMMDD":"20240221"},{"showID":202,"dateShow":"2024-04-21T19:30:00","dateDoors":"2024-02-21T18:00:00","dateLots":"","timeZone":"America/Los_Angeles","venue":"Sphere","altName":"Las Vegas","notes":"Capacinty: 18,600","address":"255 Sands Ave","city":"Las Vegas","state":"NV","postal":"89169","country":"USA","phoneNbr":"725-258-0001","venueURL":"https://www.thespherevegas.com/","setlistURL":"http://phish.net/setlists/?d=2024-04-21","seatingURL":"https://s3.amazonaws.com/prd218.tm-prod.tt.prod.us-east-1.tmaws-cdn/prod1/V2/0/fe/0fef4ede7547f5e1f7da76a99960b3fddd5ba53a.png","lat":"36.121217","lng":"-115.1620404","confidence":"1","placesPhotoReference":"","placesID":"","dateString":"21","monthString":"Feb","title":"Wed, Feb 21","YYYYMMDD":"20240221"}]