[{"showID":0,"dateShow":"2011-10-24T19:30:00","dateDoors":"","dateLots":"","timeZone":"America/New_York","venue":"Kemba Live!","altName":"Columbus","notes":"Capacity: 2300","address":"405 Neil Ave","city":"Columbus","state":"OH","postal":"43215","country":"USA","phoneNbr":"614-461-5483","venueURL":"https://promowestlive.com/columbus/kemba-live","setlistURL":"https://www.antsmarching.org/tour/ViewShow.php?ShowID=5062","seatingURL":"https://content.resale.ticketmaster.com/maps/2230-1-1-main.gif","lat":"0.0","lng":"0.0","confidence":"0","placesPhotoReference":"","placesID":"","dateString":"24","monthString":"Oct","title":"Mon, Oct 24","YYYYMMDD":"20111024"},{"showID":1,"dateShow":"2011-10-25T19:30:00","dateDoors":"","dateLots":"","timeZone":"America/New_York","venue":"The Ritz","altName":"Raleigh","notes":"","address":"2820 Industrial Dr","city":"Raleigh","state":"NC","postal":"27609","country":"USA","phoneNbr":"919-424-1400","venueURL":"https://www.livenation.com/venue/KovZpZAJIedA/the-ritz-events","setlistURL":"https://www.antsmarching.org/tour/ViewShow.php?ShowID=5063","seatingURL":"https://maps.ticketmaster.com/maps/geometry/3/event/2D005D67BAEA2335/staticImage?type=png&systemId=HOST","lat":"0.0","lng":"0.0","confidence":"0","placesPhotoReference":"","placesID":"","dateString":"25","monthString":"Oct","title":"Tue, Oct 25","YYYYMMDD":"20111025"},{"showID":2,"dateShow":"2011-10-25T19:30:00","dateDoors":"","dateLots":"","timeZone":"America/New_York","venue":"The Ritz","altName":"Raleigh","notes":"","address":"2820 Industrial Dr","city":"Raleigh","state":"NC","postal":"27609","country":"USA","phoneNbr":"919-424-1400","venueURL":"https://www.livenation.com/venue/KovZpZAJIedA/the-ritz-events","setlistURL":"https://www.antsmarching.org/tour/ViewShow.php?ShowID=5063","seatingURL":"https://maps.ticketmaster.com/maps/geometry/3/event/2D005D67BAEA2335/staticImage?type=png&systemId=HOST","lat":"0.0","lng":"0.0","confidence":"0","placesPhotoReference":"","placesID":"","dateString":"25","monthString":"Oct","title":"Tue, Oct 25","YYYYMMDD":"20111025"},{"showID":3,"dateShow":"2011-10-26T19:30:00","dateDoors":"","dateLots":"","timeZone":"America/New_York","venue":"Stage AE","altName":"Pittsburgh","notes":"","address":"400 N Shore Dr","city":"Pittsburgh","state":"PA","postal":"15212","country":"USA","phoneNbr":"412-229-5483","venueURL":"https://promowestlive.com/pittsburgh/stage-ae","setlistURL":"https://www.antsmarching.org/tour/ViewShow.php?ShowID=5064","seatingURL":"https://content.resale.ticketmaster.com/maps/8009-1-1-main.gif","lat":"0.0","lng":"0.0","confidence":"0","placesPhotoReference":"","placesID":"","dateString":"26","monthString":"Oct","title":"Wed, Oct 26","YYYYMMDD":"20111026"},{"showID":4,"dateShow":"2011-11-02T19:30:00","dateDoors":"","dateLots":"","timeZone":"America/Los_Angeles","venue":"Rogers Arena","altName":"Vancouver","notes":"","address":"800 Grittiths Way","city":"Vancouver","state":"BC","postal":"V68 6G1","country":"Canada","phoneNbr":"+1 604-899-7400","venueURL":"https://rogersarena.com/","setlistURL":"https://www.antsmarching.org/tour/ViewShow.php?ShowID=5051","seatingURL":"https://www.rateyourseats.com/assets/images/seating_charts/static/rogers-arena-concert-seating-chart-for-end-stage-shows.jpg","lat":"0.0","lng":"0.0","confidence":"0","placesPhotoReference":"","placesID":"","dateString":"2","monthString":"Nov","title":"Wed, Nov 2","YYYYMMDD":"20111102"},{"showID":5,"dateShow":"2011-11-04T19:30:00","dateDoors":"","dateLots":"","timeZone":"America/Los_Angeles","venue":"Climate Pledge Arena","altName":"Seattle","notes":"","address":"334 1st Ave N","city":"Seattle","state":"WA","postal":"98109","country":"USA","phoneNbr":"206-752-7600","venueURL":"https://climatepledgearena.com/","setlistURL":"https://www.antsmarching.org/tour/ViewShow.php?ShowID=5052","seatingURL":"https://maps.ticketmaster.com/maps/geometry/3/event/0F005CEB9AC313CC/staticImage?type=png&systemId=HOST","lat":"0.0","lng":"0.0","confidence":"0","placesPhotoReference":"","placesID":"","dateString":"4","monthString":"Nov","title":"Fri, Nov 4","YYYYMMDD":"20111104"},{"showID":6,"dateShow":"2011-11-05T19:30:00","dateDoors":"","dateLots":"","timeZone":"America/Los_Angeles","venue":"Moda Center","altName":"Portland","notes":"","address":"1 N Center Ct St","city":"Portland","state":"OR","postal":"97227","country":"USA","phoneNbr":"503-235-8771","venueURL":"https://www.rosequarter.com/about-us/our-venues","setlistURL":"https://www.antsmarching.org/tour/ViewShow.php?ShowID=5053","seatingURL":"https://maps.ticketmaster.com/maps/geometry/3/event/0F005D3DCF3C568E/staticImage?type=png&systemId=HOST","lat":"0.0","lng":"0.0","confidence":"0","placesPhotoReference":"","placesID":"","dateString":"5","monthString":"Nov","title":"Sat, Nov 5","YYYYMMDD":"20111105"},{"showID":7,"dateShow":"2011-11-08T19:30:00","dateDoors":"","dateLots":"","timeZone":"America/Denver","venue":"Ford Idaho Center Arena","altName":"Nampa","notes":"","address":"16114 N Idaho Center Blvd","city":"Nampa","state":"ID","postal":"83687","country":"USA","phoneNbr":"208-468-1000","venueURL":"https://www.fordidahocenter.com/","setlistURL":"https://www.antsmarching.org/tour/ViewShow.php?ShowID=5054","seatingURL":"https://content.resale.ticketmaster.com/maps/773-1-2-main.gif","lat":"0.0","lng":"0.0","confidence":"0","placesPhotoReference":"","placesID":"","dateString":"8","monthString":"Nov","title":"Tue, Nov 8","YYYYMMDD":"20111108"},{"showID":8,"dateShow":"2011-11-09T19:30:00","dateDoors":"","dateLots":"","timeZone":"America/Denver","venue":"Vivint Arena","altName":"Salt Lake City","notes":"","address":"301 S Temple","city":"Salt Lake City","state":"ID","postal":"84101","country":"USA","phoneNbr":"801-325-2000","venueURL":"https://www.fordidahocenter.com/","setlistURL":"https://www.antsmarching.org/tour/ViewShow.php?ShowID=5055","seatingURL":"https://maps.ticketmaster.com/maps/geometry/3/event/1E005D2E9B201EFB/staticImage?type=png&systemId=HOST","lat":"0.0","lng":"0.0","confidence":"0","placesPhotoReference":"","placesID":"","dateString":"9","monthString":"Nov","title":"Wed, Nov 9","YYYYMMDD":"20111109"},{"showID":9,"dateShow":"2011-11-09T19:30:00","dateDoors":"","dateLots":"","timeZone":"America/Chicago","venue":"CHI Health Center","altName":"Omaha","notes":"","address":"455 N 10th St","city":"Omaha","state":"NE","postal":"68102","country":"USA","phoneNbr":"402-341-1500","venueURL":"https://chihealthcenteromaha.com/","setlistURL":"https://www.antsmarching.org/tour/ViewShow.php?ShowID=5056","seatingURL":"https://maps.ticketmaster.com/maps/geometry/3/event/06005828F0389B9C/staticImage?type=png&systemId=HOST","lat":"0.0","lng":"0.0","confidence":"0","placesPhotoReference":"","placesID":"","dateString":"9","monthString":"Nov","title":"Wed, Nov 9","YYYYMMDD":"20111109"},{"showID":10,"dateShow":"2011-11-13T19:30:00","dateDoors":"","dateLots":"","timeZone":"America/Chicago","venue":"Target Center","altName":"Minneapolis","notes":"","address":"600 N 1st Ave","city":"Minneapolis","state":"MN","postal":"55403","country":"USA","phoneNbr":"612-673-1300","venueURL":"https://www.targetcenter.com/","setlistURL":"https://www.antsmarching.org/tour/ViewShow.php?ShowID=5057","seatingURL":"https://maps.ticketmaster.com/maps/geometry/3/event/06005CF5D4FF5CE1/staticImage?type=png&systemId=HOST","lat":"0.0","lng":"0.0","confidence":"0","placesPhotoReference":"","placesID":"","dateString":"13","monthString":"Nov","title":"Sun, Nov 13","YYYYMMDD":"20111113"},{"showID":11,"dateShow":"2011-11-15T19:30:00","dateDoors":"","dateLots":"","timeZone":"America/Chicago","venue":"United Center","altName":"Chicago","notes":"with Dumpstaphunk","address":"1901 W Madison St","city":"Chicago","state":"IL","postal":"60612","country":"USA","phoneNbr":"312-455-4500","venueURL":"https://unitedcenter.com/","setlistURL":"https://www.antsmarching.org/tour/ViewShow.php?ShowID=5058","seatingURL":"https://maps.ticketmaster.com/maps/geometry/3/event/04005CF2C4BC1F8D/staticImage?type=png&systemId=HOST","lat":"0.0","lng":"0.0","confidence":"0","placesPhotoReference":"","placesID":"","dateString":"15","monthString":"Nov","title":"Tue, Nov 15","YYYYMMDD":"20111115"},{"showID":12,"dateShow":"2011-11-16T19:30:00","dateDoors":"","dateLots":"","timeZone":"America/New_York","venue":"Nutter Center","altName":"Fairborn","notes":"","address":"3640 Colonel Glenn Hwy","city":"Fairborn","state":"OH","postal":"45324","country":"USA","phoneNbr":"937-775-3498","venueURL":"https://www.nuttercenter.com/","setlistURL":"https://www.antsmarching.org/tour/ViewShow.php?ShowID=5059","seatingURL":"https://maps.ticketmaster.com/maps/geometry/3/event/16005CF7268174AC/staticImage?type=png&systemId=HOST","lat":"0.0","lng":"0.0","confidence":"0","placesPhotoReference":"","placesID":"","dateString":"16","monthString":"Nov","title":"Wed, Nov 16","YYYYMMDD":"20111116"},{"showID":13,"dateShow":"2011-11-18T19:30:00","dateDoors":"","dateLots":"","timeZone":"America/New_York","venue":"Madison Square Garden","altName":"New York","notes":"","address":"4 Pennsylvania Plaza","city":"New York","state":"NY","postal":"10001","country":"USA","phoneNbr":"212-465-6741","venueURL":"https://www.msg.com/","setlistURL":"https://www.antsmarching.org/tour/ViewShow.php?ShowID=5060","seatingURL":"https://maps.ticketmaster.com/maps/geometry/3/event/3B005CF7153B2D9F/staticImage?type=png&systemId=HOST","lat":"0.0","lng":"0.0","confidence":"0","placesPhotoReference":"","placesID":"","dateString":"18","monthString":"Nov","title":"Fri, Nov 18","YYYYMMDD":"20111118"},{"showID":14,"dateShow":"2011-11-19T19:30:00","dateDoors":"","dateLots":"","timeZone":"America/New_York","venue":"Madison Square Garden","altName":"New York","notes":"","address":"4 Pennsylvania Plaza","city":"New York","state":"NY","postal":"10001","country":"USA","phoneNbr":"212-465-6741","venueURL":"https://www.msg.com/","setlistURL":"https://www.antsmarching.org/tour/ViewShow.php?ShowID=5061","seatingURL":"https://maps.ticketmaster.com/maps/geometry/3/event/3B005CF7153B2D9F/staticImage?type=png&systemId=HOST","lat":"0.0","lng":"0.0","confidence":"0","placesPhotoReference":"","placesID":"","dateString":"19","monthString":"Nov","title":"Sat, Nov 19","YYYYMMDD":"20111119"},{"showID":100,"dateShow":"2023-02-17T19:30:00","dateDoors":"","dateLots":"","timeZone":"America/Cancun","venue":"Moon Palace","altName":"Riviera Maya","notes":"","address":"Cancun-Chetumal km 36.5","city":"Alfredo Bonfil","state":"77500 Cancún","postal":"Q.R.","country":"Mexico","phoneNbr":"+52 800 262 9008","venueURL":"https://www.moonpalace.com/en","setlistURL":"https://www.antsmarching.org/tour/ViewShow.php?ShowID=5047","seatingURL":"https://daveandtimrivieramaya.com/","lat":"20.9866343","lng":"-86.82746209999999","confidence":"1","placesPhotoReference":"ATtYBwLlBJBRsYHR3ggn2R4HCb2nWR0rnCyNWH_VO1RzXfvx9Nh4QfUfNjils-aydbovav1qC6j9CKLCuMV63GNexorvWo9Wv5DeW34eYF3Op6VPqb3LFY996eyWVBe4h65m80ew9Jhczh_mFfsz_LfcgX4BW1qHXhWrwuRWm-M3AwrEaE5W","placesID":"ChIJpy4RUlwoTI8RXrJ2FFP42qc","dateString":"17","monthString":"Feb","title":"Fri, Feb 17","YYYYMMDD":"20230217"},{"showID":101,"dateShow":"2023-02-18T19:30:00","dateDoors":"","dateLots":"","timeZone":"America/Cancun","venue":"Moon Palace","altName":"Riviera Maya","notes":"","address":"Cancun-Chetumal km 36.5","city":"Alfredo Bonfil","state":"77500 Cancún","postal":"Q.R.","country":"Mexico","phoneNbr":"+52 800 262 9008","venueURL":"https://www.moonpalace.com/en","setlistURL":"https://www.antsmarching.org/tour/ViewShow.php?ShowID=5048","seatingURL":"https://daveandtimrivieramaya.com/","lat":"20.9866343","lng":"-86.82746209999999","confidence":"1","placesPhotoReference":"ATtYBwLlBJBRsYHR3ggn2R4HCb2nWR0rnCyNWH_VO1RzXfvx9Nh4QfUfNjils-aydbovav1qC6j9CKLCuMV63GNexorvWo9Wv5DeW34eYF3Op6VPqb3LFY996eyWVBe4h65m80ew9Jhczh_mFfsz_LfcgX4BW1qHXhWrwuRWm-M3AwrEaE5W","placesID":"ChIJpy4RUlwoTI8RXrJ2FFP42qc","dateString":"18","monthString":"Feb","title":"Sat, Feb 18","YYYYMMDD":"20230218"},{"showID":102,"dateShow":"2023-02-19T19:30:00","dateDoors":"","dateLots":"","timeZone":"America/Cancun","venue":"Moon Palace","altName":"Riviera Maya","notes":"","address":"Cancun-Chetumal km 36.5","city":"Alfredo Bonfil","state":"77500 Cancún","postal":"Q.R.","country":"Mexico","phoneNbr":"+52 800 262 9008","venueURL":"https://www.moonpalace.com/en","setlistURL":"https://www.antsmarching.org/tour/ViewShow.php?ShowID=5048","seatingURL":"https://daveandtimrivieramaya.com/","lat":"20.9866343","lng":"-86.82746209999999","confidence":"1","placesPhotoReference":"ATtYBwLlBJBRsYHR3ggn2R4HCb2nWR0rnCyNWH_VO1RzXfvx9Nh4QfUfNjils-aydbovav1qC6j9CKLCuMV63GNexorvWo9Wv5DeW34eYF3Op6VPqb3LFY996eyWVBe4h65m80ew9Jhczh_mFfsz_LfcgX4BW1qHXhWrwuRWm-M3AwrEaE5W","placesID":"ChIJpy4RUlwoTI8RXrJ2FFP42qc","dateString":"19","monthString":"Feb","title":"Sun, Feb 19","YYYYMMDD":"20230219"},{"showID":200,"dateShow":"2023-03-19T19:30:00","dateDoors":"","dateLots":"","timeZone":"America/New_York","venue":"Raymond James Stadium","altName":"Tampa","notes":"Innings Festival","address":"4201 N Dale Mabry Hwy","city":"Tampa","state":"FL","postal":"33607.","country":"USA","phoneNbr":"813-350-6500","venueURL":"https://raymondjamesstadium.com/","setlistURL":"https://www.antsmarching.org/tour/ViewShow.php?ShowID=5061","seatingURL":"https://daveandtimrivieramaya.com/","lat":"0.0","lng":"0.0","confidence":"0","placesPhotoReference":"","placesID":"","dateString":"19","monthString":"Mar","title":"Sun, Mar 19","YYYYMMDD":"20230319"}]