[{"showID":100,"dateShow":"2023-10-06T19:30:00","dateDoors":"2023-10-06T18:00:00","dateLots":"","timeZone":"America/Chicago","venue":"Bridgestone Arena","altName":"Nashville","notes":"Capacity: 20,000","address":"501 Broadway","city":"Nashville","state":"TN","postal":"37023","country":"USA","phoneNbr":"615-770-2000","venueURL":"https://www.bridgestonearena.com/","setlistURL":"http://phish.net/setlists/?d=2023-10-06","seatingURL":"https://maps.ticketmaster.com/maps/geometry/3/event/1B005ECBCCED33D3/staticImage?type=png&systemId=HOST","lat":"0.0","lng":"0.0","confidence":"0","placesPhotoReference":"","placesID":"","dateString":"21","monthString":"Feb","title":"Wed, Feb 21","YYYYMMDD":"20240221"},{"showID":101,"dateShow":"2023-10-07T19:30:00","dateDoors":"2023-10-07T18:00:00","dateLots":"","timeZone":"America/Chicago","venue":"Bridgestone Arena","altName":"Nashville","notes":"Capacity: 20,000","address":"501 Broadway","city":"Nashville","state":"TN","postal":"37023","country":"USA","phoneNbr":"615-770-2000","venueURL":"https://www.bridgestonearena.com/","setlistURL":"http://phish.net/setlists/?d=2023-10-07","seatingURL":"https://maps.ticketmaster.com/maps/geometry/3/event/1B005ECBCCED33D3/staticImage?type=png&systemId=HOST","lat":"0.0","lng":"0.0","confidence":"0","placesPhotoReference":"","placesID":"","dateString":"21","monthString":"Feb","title":"Wed, Feb 21","YYYYMMDD":"20240221"},{"showID":102,"dateShow":"2023-10-08T19:30:00","dateDoors":"2023-10-08T18:00:00","dateLots":"","timeZone":"America/Chicago","venue":"Bridgestone Arena","altName":"Nashville","notes":"Capacity: 20,000","address":"501 Broadway","city":"Nashville","state":"TN","postal":"37023","country":"USA","phoneNbr":"615-770-2000","venueURL":"https://www.bridgestonearena.com/","setlistURL":"http://phish.net/setlists/?d=2023-10-08","seatingURL":"https://maps.ticketmaster.com/maps/geometry/3/event/1B005ECBCCED33D3/staticImage?type=png&systemId=HOST","lat":"0.0","lng":"0.0","confidence":"0","placesPhotoReference":"","placesID":"","dateString":"21","monthString":"Feb","title":"Wed, Feb 21","YYYYMMDD":"20240221"},{"showID":103,"dateShow":"2023-10-10T19:30:00","dateDoors":"2023-10-10T18:00:00","dateLots":"","timeZone":"America/New_York","venue":"Ervin J. Nutter Center","altName":"Dayton","notes":"Capacity: 10,400","address":"3640 Colonel Glenn Hwy","city":"Fairborn","state":"OH","postal":"45324","country":"USA","phoneNbr":"937-775-3498","venueURL":"https://www.nuttercenter.com/","setlistURL":"http://phish.net/setlists/?d=2023-10-10","seatingURL":"https://s1.ticketm.net/tmimages/venue/maps/ch6/14475s.gif","lat":"0.0","lng":"0.0","confidence":"0","placesPhotoReference":"","placesID":"","dateString":"21","monthString":"Feb","title":"Wed, Feb 21","YYYYMMDD":"20240221"},{"showID":104,"dateShow":"2023-10-11T19:30:00","dateDoors":"2023-10-11T18:00:00","dateLots":"","timeZone":"America/New_York","venue":"Ervin J. Nutter Center","altName":"Dayton","notes":"Capacity: 10,400","address":"3640 Colonel Glenn Hwy","city":"Fairborn","state":"OH","postal":"45324","country":"USA","phoneNbr":"937-775-3498","venueURL":"https://www.nuttercenter.com/","setlistURL":"http://phish.net/setlists/?d=2023-10-11","seatingURL":"https://s1.ticketm.net/tmimages/venue/maps/ch6/14475s.gif","lat":"0.0","lng":"0.0","confidence":"0","placesPhotoReference":"","placesID":"","dateString":"21","monthString":"Feb","title":"Wed, Feb 21","YYYYMMDD":"20240221"},{"showID":105,"dateShow":"2023-10-13T19:30:00","dateDoors":"2023-10-13T18:00:00","dateLots":"","timeZone":"America/Chicago","venue":"United Center","altName":"Chicago","notes":"Capacity: 23,500","address":"1901 W Madison St","city":"Chicago","state":"IL","postal":"60612","country":"USA","phoneNbr":"312-455-4500","venueURL":"https://www.unitedcenter.com/","setlistURL":"http://phish.net/setlists/?d=2023-10-13","seatingURL":"https://maps.ticketmaster.com/maps/geometry/3/event/04005ED6A4E21A40/staticImage?type=png&systemId=HOST","lat":"0.0","lng":"0.0","confidence":"0","placesPhotoReference":"","placesID":"","dateString":"21","monthString":"Feb","title":"Wed, Feb 21","YYYYMMDD":"20240221"},{"showID":106,"dateShow":"2023-10-14T19:30:00","dateDoors":"2023-10-14T18:00:00","dateLots":"","timeZone":"America/Chicago","venue":"United Center","altName":"Chicago","notes":"Capacity: 23,500","address":"1901 W Madison St","city":"Chicago","state":"IL","postal":"60612","country":"USA","phoneNbr":"312-455-4500","venueURL":"https://www.unitedcenter.com/","setlistURL":"http://phish.net/setlists/?d=2023-10-14","seatingURL":"https://maps.ticketmaster.com/maps/geometry/3/event/04005ED6A4E21A40/staticImage?type=png&systemId=HOST","lat":"0.0","lng":"0.0","confidence":"0","placesPhotoReference":"","placesID":"","dateString":"21","monthString":"Feb","title":"Wed, Feb 21","YYYYMMDD":"20240221"},{"showID":107,"dateShow":"2023-10-15T19:30:00","dateDoors":"2023-10-15T18:00:00","dateLots":"","timeZone":"America/Chicago","venue":"United Center","altName":"Chicago","notes":"Capacity: 23,500","address":"1901 W Madison St","city":"Chicago","state":"IL","postal":"60612","country":"USA","phoneNbr":"312-455-4500","venueURL":"https://www.unitedcenter.com/","setlistURL":"http://phish.net/setlists/?d=2023-10-15","seatingURL":"https://maps.ticketmaster.com/maps/geometry/3/event/04005ED6A4E21A40/staticImage?type=png&systemId=HOST","lat":"0.0","lng":"0.0","confidence":"0","placesPhotoReference":"","placesID":"","dateString":"21","monthString":"Feb","title":"Wed, Feb 21","YYYYMMDD":"20240221"}]