[{"showID":100,"dateShow":"2025-06-20T19:30:00","dateDoors":"2025-06-20T18:00:00","dateLots":"","timeZone":"America/New_York","venue":"SNHU Arena","altName":"Manchester","notes":"Capacity: 11,770","address":"555 Elm St","city":"Manchester","state":"NH","postal":"03101","country":"USA","phoneNbr":"603-644-5000","venueURL":"https://www.snhuarena.com/","setlistURL":"http://phish.net/setlists/?d=2025-06-20","seatingURL":"https://s3.amazonaws.com/prd218.tm-prod.tt.prod.us-east-1.tmaws-cdn/prod1/V2/7/c2/7c265b95b6c3a876363b6b75d5af14f20bdd8e7f.jpg","lat":"0.0","lng":"0.0","confidence":"0","placesPhotoReference":"","placesID":"","dateString":"20","monthString":"Jun","title":"Fri, Jun 20","YYYYMMDD":"20250620"},{"showID":101,"dateShow":"2025-06-21T19:30:00","dateDoors":"2025-06-21T18:00:00","dateLots":"","timeZone":"America/New_York","venue":"SNHU Arena","altName":"Manchester","notes":"Capacity: 11,770","address":"555 Elm St","city":"Manchester","state":"NH","postal":"03101","country":"USA","phoneNbr":"603-644-5000","venueURL":"https://www.snhuarena.com/","setlistURL":"http://phish.net/setlists/?d=2025-06-21","seatingURL":"https://s3.amazonaws.com/prd218.tm-prod.tt.prod.us-east-1.tmaws-cdn/prod1/V2/7/c2/7c265b95b6c3a876363b6b75d5af14f20bdd8e7f.jpg","lat":"0.0","lng":"0.0","confidence":"0","placesPhotoReference":"","placesID":"","dateString":"21","monthString":"Jun","title":"Sat, Jun 21","YYYYMMDD":"20250621"},{"showID":102,"dateShow":"2025-06-22T19:30:00","dateDoors":"2025-06-22T18:00:00","dateLots":"","timeZone":"America/New_York","venue":"SNHU Arena","altName":"Manchester","notes":"Capacity: 11,770","address":"555 Elm St","city":"Manchester","state":"NH","postal":"03101","country":"USA","phoneNbr":"603-644-5000","venueURL":"https://www.snhuarena.com/","setlistURL":"http://phish.net/setlists/?d=2025-06-22","seatingURL":"https://s3.amazonaws.com/prd218.tm-prod.tt.prod.us-east-1.tmaws-cdn/prod1/V2/7/c2/7c265b95b6c3a876363b6b75d5af14f20bdd8e7f.jpg","lat":"0.0","lng":"0.0","confidence":"0","placesPhotoReference":"","placesID":"","dateString":"22","monthString":"Jun","title":"Sun, Jun 22","YYYYMMDD":"20250622"},{"showID":103,"dateShow":"2025-06-24T19:30:00","dateDoors":"2025-06-24T18:00:00","dateLots":"","timeZone":"America/New_York","venue":"Petersen Events Center","altName":"Pittsburgh","notes":"Capacity: 12,508","address":"3719 Terrace St","city":"Pittsburgh","state":"PA","postal":"15261","country":"USA","phoneNbr":"412-648-3054","venueURL":"http://www.peterseneventscenter.com/","setlistURL":"http://phish.net/setlists/?d=2025-06-24","seatingURL":"https://s3.amazonaws.com/prd218.tm-prod.tt.prod.us-east-1.tmaws-cdn/prod1/V2/2/75/27596554ff6182b93745021b52e14a674fba51a5.png","lat":"0.0","lng":"0.0","confidence":"0","placesPhotoReference":"","placesID":"","dateString":"24","monthString":"Jun","title":"Tue, Jun 24","YYYYMMDD":"20250624"},{"showID":104,"dateShow":"2025-06-27T19:30:00","dateDoors":"2025-06-27T18:00:00","dateLots":"","timeZone":"America/Chicago","venue":"Moody Center","altName":"Austin","notes":"Capacity: 16,223","address":"2001 Robert Dedman Dr","city":"Austin","state":"TX","postal":"78712","country":"USA","phoneNbr":"512-651-7600","venueURL":"https://moodycenteratx.com/","setlistURL":"http://phish.net/setlists/?d=2025-06-27","seatingURL":"https://mapsapi.tmol.io/maps/geometry/3/event/3A00612CA654736F/staticImage?type=png&systemId=HOST","lat":"0.0","lng":"0.0","confidence":"0","placesPhotoReference":"","placesID":"","dateString":"27","monthString":"Jun","title":"Fri, Jun 27","YYYYMMDD":"20250627"},{"showID":105,"dateShow":"2025-06-28T19:30:00","dateDoors":"2025-06-28T18:00:00","dateLots":"","timeZone":"America/Chicago","venue":"Moody Center","altName":"Austin","notes":"Capacity: 16,223","address":"2001 Robert Dedman Dr","city":"Austin","state":"TX","postal":"78712","country":"USA","phoneNbr":"512-651-7600","venueURL":"https://moodycenteratx.com/","setlistURL":"http://phish.net/setlists/?d=2025-06-28","seatingURL":"https://mapsapi.tmol.io/maps/geometry/3/event/3A00612CA654736F/staticImage?type=png&systemId=HOST","lat":"0.0","lng":"0.0","confidence":"0","placesPhotoReference":"","placesID":"","dateString":"28","monthString":"Jun","title":"Sat, Jun 28","YYYYMMDD":"20250628"},{"showID":106,"dateShow":"2025-07-03T19:30:00","dateDoors":"2025-07-03T18:00:00","dateLots":"","timeZone":"America/Denver","venue":"Folsom Field","altName":"Boulder","notes":"Capacity: 50,183","address":"2400 Colorado Ave","city":"Boulder","state":"CO","postal":"80305","country":"USA","phoneNbr":"","venueURL":"https://cubuffs.com/facilities/folsom-field/1","setlistURL":"http://phish.net/setlists/?d=2025-07-03","seatingURL":"https://s3.amazonaws.com/prd218.tm-prod.tt.prod.us-east-1.tmaws-cdn/prod1/V2/c/79/c791360fe28279a322c789cc5e79237942eabbcc.jpg","lat":"0.0","lng":"0.0","confidence":"0","placesPhotoReference":"","placesID":"","dateString":"3","monthString":"Jul","title":"Thu, Jul 3","YYYYMMDD":"20250703"},{"showID":107,"dateShow":"2025-07-04T19:30:00","dateDoors":"2025-07-04T18:00:00","dateLots":"","timeZone":"America/Denver","venue":"Folsom Field","altName":"Boulder","notes":"Capacity: 50,183","address":"2400 Colorado Ave","city":"Boulder","state":"CO","postal":"80305","country":"USA","phoneNbr":"","venueURL":"https://cubuffs.com/facilities/folsom-field/1","setlistURL":"http://phish.net/setlists/?d=2025-07-04","seatingURL":"https://s3.amazonaws.com/prd218.tm-prod.tt.prod.us-east-1.tmaws-cdn/prod1/V2/c/79/c791360fe28279a322c789cc5e79237942eabbcc.jpg","lat":"0.0","lng":"0.0","confidence":"0","placesPhotoReference":"","placesID":"","dateString":"4","monthString":"Jul","title":"Fri, Jul 4","YYYYMMDD":"20250704"},{"showID":108,"dateShow":"2025-07-05T19:30:00","dateDoors":"2025-07-05T18:00:00","dateLots":"","timeZone":"America/Denver","venue":"Folsom Field","altName":"Boulder","notes":"Capacity: 50,183","address":"2400 Colorado Ave","city":"Boulder","state":"CO","postal":"80305","country":"USA","phoneNbr":"","venueURL":"https://cubuffs.com/facilities/folsom-field/1","setlistURL":"http://phish.net/setlists/?d=2025-07-05","seatingURL":"https://s3.amazonaws.com/prd218.tm-prod.tt.prod.us-east-1.tmaws-cdn/prod1/V2/c/79/c791360fe28279a322c789cc5e79237942eabbcc.jpg","lat":"0.0","lng":"0.0","confidence":"0","placesPhotoReference":"","placesID":"","dateString":"5","monthString":"Jul","title":"Sat, Jul 5","YYYYMMDD":"20250705"},{"showID":109,"dateShow":"2025-07-09T19:30:00","dateDoors":"2025-07-09T18:00:00","dateLots":"","timeZone":"America/New_York","venue":"Schottenstein Center","altName":"Columbus","notes":"Capacity: 18,809","address":"555 Borror Dr","city":"Columbus","state":"CO","postal":"43210","country":"USA","phoneNbr":"614-688-3939","venueURL":"https://www.schottensteincenter.com/","setlistURL":"http://phish.net/setlists/?d=2025-07-09","seatingURL":"https://s3.amazonaws.com/prd218.tm-prod.tt.prod.us-east-1.tmaws-cdn/prod1/V2/d/c2/dc28019993ec80bdaaaa7c4b1df8607a7e011d30.png","lat":"0.0","lng":"0.0","confidence":"0","placesPhotoReference":"","placesID":"","dateString":"9","monthString":"Jul","title":"Wed, Jul 9","YYYYMMDD":"20250709"},{"showID":110,"dateShow":"2025-07-11T19:30:00","dateDoors":"2025-07-11T18:00:00","dateLots":"","timeZone":"America/New_York","venue":"North Charleston Coliseum","altName":"North Charleston","notes":"Capacity: 13,295","address":"5001 Coliseum Dr","city":"North Charleston","state":"SC","postal":"29418","country":"USA","phoneNbr":"843-529-5000","venueURL":"https://www.northcharlestoncoliseumpac.com/","setlistURL":"http://phish.net/setlists/?d=2025-07-11","seatingURL":"https://s3.amazonaws.com/prd218.tm-prod.tt.prod.us-east-1.tmaws-cdn/prod1/V2/5/6d/56d8be33535cd9be76075006c6078e9ac3b2e09a.png","lat":"0.0","lng":"0.0","confidence":"0","placesPhotoReference":"","placesID":"","dateString":"11","monthString":"Jul","title":"Fri, Jul 11","YYYYMMDD":"20250711"},{"showID":111,"dateShow":"2025-07-12T19:30:00","dateDoors":"2025-07-12T18:00:00","dateLots":"","timeZone":"America/New_York","venue":"North Charleston Coliseum","altName":"North Charleston","notes":"Capacity: 13,295","address":"5001 Coliseum Dr","city":"North Charleston","state":"SC","postal":"29418","country":"USA","phoneNbr":"843-529-5000","venueURL":"https://www.northcharlestoncoliseumpac.com/","setlistURL":"http://phish.net/setlists/?d=2025-07-12","seatingURL":"https://s3.amazonaws.com/prd218.tm-prod.tt.prod.us-east-1.tmaws-cdn/prod1/V2/5/6d/56d8be33535cd9be76075006c6078e9ac3b2e09a.png","lat":"0.0","lng":"0.0","confidence":"0","placesPhotoReference":"","placesID":"","dateString":"12","monthString":"Jul","title":"Sat, Jul 12","YYYYMMDD":"20250712"},{"showID":112,"dateShow":"2025-07-13T19:30:00","dateDoors":"2025-07-13T18:00:00","dateLots":"","timeZone":"America/New_York","venue":"North Charleston Coliseum","altName":"North Charleston","notes":"Capacity: 13,295","address":"5001 Coliseum Dr","city":"North Charleston","state":"SC","postal":"29418","country":"USA","phoneNbr":"843-529-5000","venueURL":"https://www.northcharlestoncoliseumpac.com/","setlistURL":"http://phish.net/setlists/?d=2025-07-13","seatingURL":"https://s3.amazonaws.com/prd218.tm-prod.tt.prod.us-east-1.tmaws-cdn/prod1/V2/5/6d/56d8be33535cd9be76075006c6078e9ac3b2e09a.png","lat":"0.0","lng":"0.0","confidence":"0","placesPhotoReference":"","placesID":"","dateString":"13","monthString":"Jul","title":"Sun, Jul 13","YYYYMMDD":"20250713"},{"showID":113,"dateShow":"2025-07-15T19:30:00","dateDoors":"2025-07-15T18:00:00","dateLots":"","timeZone":"America/New_York","venue":"TD Pavilion at the Mann","altName":"Philadelphia","notes":"Capacity: 14,000","address":"5201 Parkside Ave","city":"Philadelphia","state":"PA","postal":"19131","country":"USA","phoneNbr":"215-546-7900","venueURL":"https://manncenter.org/","setlistURL":"http://phish.net/setlists/?d=2025-07-15","seatingURL":"https://mapsapi.tmol.io/maps/geometry/3/event/0200622FCF962C34/staticImage?type=png&systemId=HOST","lat":"0.0","lng":"0.0","confidence":"0","placesPhotoReference":"","placesID":"","dateString":"15","monthString":"Jul","title":"Tue, Jul 15","YYYYMMDD":"20250715"},{"showID":114,"dateShow":"2025-07-16T19:30:00","dateDoors":"2025-07-16T18:00:00","dateLots":"","timeZone":"America/New_York","venue":"TD Pavilion at the Mann","altName":"Philadelphia","notes":"Capacity: 14,000","address":"5201 Parkside Ave","city":"Philadelphia","state":"PA","postal":"19131","country":"USA","phoneNbr":"215-546-7900","venueURL":"https://manncenter.org/","setlistURL":"http://phish.net/setlists/?d=2025-07-16","seatingURL":"https://mapsapi.tmol.io/maps/geometry/3/event/0200622FCF962C34/staticImage?type=png&systemId=HOST","lat":"0.0","lng":"0.0","confidence":"0","placesPhotoReference":"","placesID":"","dateString":"16","monthString":"Jul","title":"Wed, Jul 16","YYYYMMDD":"20250716"},{"showID":115,"dateShow":"2025-07-18T19:30:00","dateDoors":"2025-07-18T18:00:00","dateLots":"","timeZone":"America/New_York","venue":"United Center","altName":"Chicago","notes":"Capacity: 23,500","address":"1901 W Madison","city":"Chicago","state":"IL","postal":"60612","country":"USA","phoneNbr":"","venueURL":"https://www.unitedcenter.com/","setlistURL":"http://phish.net/setlists/?d=2025-07-18","seatingURL":"https://mapsapi.tmol.io/maps/geometry/3/event/0400612CC03935EB/staticImage?type=png&systemId=HOST","lat":"0.0","lng":"0.0","confidence":"0","placesPhotoReference":"","placesID":"","dateString":"18","monthString":"Jul","title":"Fri, Jul 18","YYYYMMDD":"20250718"},{"showID":116,"dateShow":"2025-07-19T19:30:00","dateDoors":"2025-07-19T18:00:00","dateLots":"","timeZone":"America/New_York","venue":"United Center","altName":"Chicago","notes":"Capacity: 23,500","address":"1901 W Madison","city":"Chicago","state":"IL","postal":"60612","country":"USA","phoneNbr":"","venueURL":"https://www.unitedcenter.com/","setlistURL":"http://phish.net/setlists/?d=2025-07-19","seatingURL":"https://mapsapi.tmol.io/maps/geometry/3/event/0400612CC03935EB/staticImage?type=png&systemId=HOST","lat":"0.0","lng":"0.0","confidence":"0","placesPhotoReference":"","placesID":"","dateString":"19","monthString":"Jul","title":"Sat, Jul 19","YYYYMMDD":"20250719"},{"showID":117,"dateShow":"2025-07-20T19:30:00","dateDoors":"2025-07-20T18:00:00","dateLots":"","timeZone":"America/New_York","venue":"United Center","altName":"Chicago","notes":"Capacity: 23,500","address":"1901 W Madison","city":"Chicago","state":"IL","postal":"60612","country":"USA","phoneNbr":"","venueURL":"https://www.unitedcenter.com/","setlistURL":"http://phish.net/setlists/?d=2025-07-20","seatingURL":"https://mapsapi.tmol.io/maps/geometry/3/event/0400612CC03935EB/staticImage?type=png&systemId=HOST","lat":"0.0","lng":"0.0","confidence":"0","placesPhotoReference":"","placesID":"","dateString":"20","monthString":"Jul","title":"Sun, Jul 20","YYYYMMDD":"20250720"},{"showID":118,"dateShow":"2025-07-22T18:00:00","dateDoors":"2025-07-22T16:30:00","dateLots":"","timeZone":"America/New_York","venue":"Forest Hils Stadium","altName":"Forest Hills","notes":"Capacity: 13,000","address":"1 Tennis Pl","city":"Forest Hills","state":"NY","postal":"11375","country":"USA","phoneNbr":"888-929-7849","venueURL":"https://creditonestadium.com/","setlistURL":"http://phish.net/setlists/?d=2025-07-22","seatingURL":"https://s3.amazonaws.com/prd218.tm-prod.tt.prod.us-east-1.tmaws-cdn/prod1/V2/c/cc/ccc45645facec34c5f47338bd136bddb2bdce0e7.jpg","lat":"0.0","lng":"0.0","confidence":"0","placesPhotoReference":"","placesID":"","dateString":"22","monthString":"Jul","title":"Tue, Jul 22","YYYYMMDD":"20250722"},{"showID":119,"dateShow":"2025-07-23T18:00:00","dateDoors":"2025-07-23T16:30:00","dateLots":"","timeZone":"America/New_York","venue":"Forest Hils Stadium","altName":"Forest Hills","notes":"Capacity: 13,000","address":"1 Tennis Pl","city":"Forest Hills","state":"NY","postal":"11375","country":"USA","phoneNbr":"888-929-7849","venueURL":"https://creditonestadium.com/","setlistURL":"http://phish.net/setlists/?d=2025-07-23","seatingURL":"https://s3.amazonaws.com/prd218.tm-prod.tt.prod.us-east-1.tmaws-cdn/prod1/V2/c/cc/ccc45645facec34c5f47338bd136bddb2bdce0e7.jpg","lat":"0.0","lng":"0.0","confidence":"0","placesPhotoReference":"","placesID":"","dateString":"23","monthString":"Jul","title":"Wed, Jul 23","YYYYMMDD":"20250723"},{"showID":120,"dateShow":"2025-07-25T19:30:00","dateDoors":"2025-07-25T18:00:00","dateLots":"","timeZone":"America/New_York","venue":"Broadview Stage at SPAC","altName":"Saratoga Springs","notes":"Capacity: 25,100","address":"108 Avenue of the Pines","city":"Saratoga Springs","state":"NY","postal":"12866","country":"USA","phoneNbr":"518-584-9330","venueURL":"https://spac.org/","setlistURL":"http://phish.net/setlists/?d=2025-07-25","seatingURL":"https://mapsapi.tmol.io/maps/geometry/3/event/0000618DA2042C5B/staticImage?type=png&systemId=HOST","lat":"0.0","lng":"0.0","confidence":"0","placesPhotoReference":"","placesID":"","dateString":"25","monthString":"Jul","title":"Fri, Jul 25","YYYYMMDD":"20250725"},{"showID":121,"dateShow":"2025-07-26T19:30:00","dateDoors":"2025-07-26T18:00:00","dateLots":"","timeZone":"America/New_York","venue":"Broadview Stage at SPAC","altName":"Saratoga Springs","notes":"Capacity: 25,100","address":"108 Avenue of the Pines","city":"Saratoga Springs","state":"NY","postal":"12866","country":"USA","phoneNbr":"518-584-9330","venueURL":"https://spac.org/","setlistURL":"http://phish.net/setlists/?d=2025-07-26","seatingURL":"https://mapsapi.tmol.io/maps/geometry/3/event/0000618DA2042C5B/staticImage?type=png&systemId=HOST","lat":"0.0","lng":"0.0","confidence":"0","placesPhotoReference":"","placesID":"","dateString":"26","monthString":"Jul","title":"Sat, Jul 26","YYYYMMDD":"20250726"},{"showID":122,"dateShow":"2025-07-27T19:30:00","dateDoors":"2025-07-27T18:00:00","dateLots":"","timeZone":"America/New_York","venue":"Broadview Stage at SPAC","altName":"Saratoga Springs","notes":"Capacity: 25,100","address":"108 Avenue of the Pines","city":"Saratoga Springs","state":"NY","postal":"12866","country":"USA","phoneNbr":"518-584-9330","venueURL":"https://spac.org/","setlistURL":"http://phish.net/setlists/?d=2025-07-27","seatingURL":"https://mapsapi.tmol.io/maps/geometry/3/event/0000618DA2042C5B/staticImage?type=png&systemId=HOST","lat":"0.0","lng":"0.0","confidence":"0","placesPhotoReference":"","placesID":"","dateString":"27","monthString":"Jul","title":"Sun, Jul 27","YYYYMMDD":"20250727"},{"showID":123,"dateShow":"2025-09-12T19:30:00","dateDoors":"","dateLots":"","timeZone":"America/Chicago","venue":"Highland Festival Grounds","altName":"Louisville","notes":"Bourbon & Beyond Festival","address":"1016 Phillips Ln","city":"Louisville","state":"KY","postal":"40209","country":"USA","phoneNbr":"","venueURL":"https://bourbonandbeyond.com/","setlistURL":"http://phish.net/setlists/?d=2025-09-12","seatingURL":"https://bourbonandbeyond.com/wp-content/uploads/2025/01/BB25_Ticketing_Map_V8.jpg","lat":"0.0","lng":"0.0","confidence":"0","placesPhotoReference":"","placesID":"","dateString":"12","monthString":"Sep","title":"Fri, Sep 12","YYYYMMDD":"20250912"}]