[{"showID":100,"dateShow":"2025-06-20T19:30:00","dateDoors":"2025-06-20T18:00:00","dateLots":"","timeZone":"America/New_York","venue":"SNHU Arena","altName":"Manchester","notes":"Capacity: 11,770","address":"555 Elm St","city":"Manchester","state":"NH","postal":"03101","country":"USA","phoneNbr":"603-644-5000","venueURL":"https://www.snhuarena.com/","setlistURL":"http://phish.net/setlists/?d=2025-06-20","seatingURL":"https://mapsapi.tmol.io/maps/geometry/3/event/0100612DAB30370A/staticImage?type=png&systemId=HOST","lat":"0.0","lng":"0.0","confidence":"0","placesPhotoReference":"","placesID":"","dateString":"12","monthString":"Sep","title":"Fri, Sep 12","YYYYMMDD":"20250912"},{"showID":101,"dateShow":"2025-06-21T19:30:00","dateDoors":"2025-06-21T18:00:00","dateLots":"","timeZone":"America/New_York","venue":"SNHU Arena","altName":"Manchester","notes":"Capacity: 11,770","address":"555 Elm St","city":"Manchester","state":"NH","postal":"03101","country":"USA","phoneNbr":"603-644-5000","venueURL":"https://www.snhuarena.com/","setlistURL":"http://phish.net/setlists/?d=2025-06-21","seatingURL":"https://mapsapi.tmol.io/maps/geometry/3/event/0100612DAB30370A/staticImage?type=png&systemId=HOST","lat":"0.0","lng":"0.0","confidence":"0","placesPhotoReference":"","placesID":"","dateString":"12","monthString":"Sep","title":"Fri, Sep 12","YYYYMMDD":"20250912"},{"showID":102,"dateShow":"2025-06-22T19:30:00","dateDoors":"2025-06-22T18:00:00","dateLots":"","timeZone":"America/New_York","venue":"SNHU Arena","altName":"Manchester","notes":"Capacity: 11,770","address":"555 Elm St","city":"Manchester","state":"NH","postal":"03101","country":"USA","phoneNbr":"603-644-5000","venueURL":"https://www.snhuarena.com/","setlistURL":"http://phish.net/setlists/?d=2025-06-22","seatingURL":"https://mapsapi.tmol.io/maps/geometry/3/event/0100612DAB30370A/staticImage?type=png&systemId=HOST","lat":"0.0","lng":"0.0","confidence":"0","placesPhotoReference":"","placesID":"","dateString":"12","monthString":"Sep","title":"Fri, Sep 12","YYYYMMDD":"20250912"},{"showID":103,"dateShow":"2025-06-24T19:30:00","dateDoors":"2025-06-24T18:00:00","dateLots":"","timeZone":"America/New_York","venue":"Petersen Events Center","altName":"Pittsburgh","notes":"Capacity: 12,508","address":"3719 Terrace St","city":"Pittsburgh","state":"PA","postal":"15261","country":"USA","phoneNbr":"412-648-3054","venueURL":"http://www.peterseneventscenter.com/","setlistURL":"http://phish.net/setlists/?d=2025-06-24","seatingURL":"https://mapsapi.tmol.io/maps/geometry/3/event/0100612DAB30370A/staticImage?type=png&systemId=HOST","lat":"0.0","lng":"0.0","confidence":"0","placesPhotoReference":"","placesID":"","dateString":"12","monthString":"Sep","title":"Fri, Sep 12","YYYYMMDD":"20250912"},{"showID":104,"dateShow":"2025-06-27T19:30:00","dateDoors":"2025-06-27T18:00:00","dateLots":"","timeZone":"America/Chicago","venue":"Moody Center","altName":"Austin","notes":"Capacity: 16,223","address":"2001 Robert Dedman Dr","city":"Austin","state":"TX","postal":"78712","country":"USA","phoneNbr":"512-651-7600","venueURL":"https://moodycenteratx.com/","setlistURL":"http://phish.net/setlists/?d=2025-06-27","seatingURL":"https://mapsapi.tmol.io/maps/geometry/3/event/3A00622FCA983C9A/staticImage?type=png&systemId=HOST","lat":"0.0","lng":"0.0","confidence":"0","placesPhotoReference":"","placesID":"","dateString":"12","monthString":"Sep","title":"Fri, Sep 12","YYYYMMDD":"20250912"},{"showID":105,"dateShow":"2025-06-28T19:30:00","dateDoors":"2025-06-28T18:00:00","dateLots":"","timeZone":"America/Chicago","venue":"Moody Center","altName":"Austin","notes":"Capacity: 16,223","address":"2001 Robert Dedman Dr","city":"Austin","state":"TX","postal":"78712","country":"USA","phoneNbr":"512-651-7600","venueURL":"https://moodycenteratx.com/","setlistURL":"http://phish.net/setlists/?d=2025-06-28","seatingURL":"https://mapsapi.tmol.io/maps/geometry/3/event/3A00622FCA983C9A/staticImage?type=png&systemId=HOST","lat":"0.0","lng":"0.0","confidence":"0","placesPhotoReference":"","placesID":"","dateString":"12","monthString":"Sep","title":"Fri, Sep 12","YYYYMMDD":"20250912"},{"showID":106,"dateShow":"2025-07-03T19:30:00","dateDoors":"2025-07-03T18:00:00","dateLots":"","timeZone":"America/Denver","venue":"Folsom Field","altName":"Boulder","notes":"Capacity: 50,183","address":"2400 Colorado Ave","city":"Boulder","state":"CO","postal":"80305","country":"USA","phoneNbr":"","venueURL":"https://cubuffs.com/facilities/folsom-field/1","setlistURL":"http://phish.net/setlists/?d=2025-07-03","seatingURL":"https://cu_ftp.sidearmsports.com/custompages/www.cubuffs.com/fls/600/tickets/folsom_information_map.pdf","lat":"0.0","lng":"0.0","confidence":"0","placesPhotoReference":"","placesID":"","dateString":"12","monthString":"Sep","title":"Fri, Sep 12","YYYYMMDD":"20250912"},{"showID":107,"dateShow":"2025-07-04T19:30:00","dateDoors":"2025-07-04T18:00:00","dateLots":"","timeZone":"America/Denver","venue":"Folsom Field","altName":"Boulder","notes":"Capacity: 50,183","address":"2400 Colorado Ave","city":"Boulder","state":"CO","postal":"80305","country":"USA","phoneNbr":"","venueURL":"https://cubuffs.com/facilities/folsom-field/1","setlistURL":"http://phish.net/setlists/?d=2025-07-04","seatingURL":"https://cu_ftp.sidearmsports.com/custompages/www.cubuffs.com/fls/600/tickets/folsom_information_map.pdf","lat":"0.0","lng":"0.0","confidence":"0","placesPhotoReference":"","placesID":"","dateString":"12","monthString":"Sep","title":"Fri, Sep 12","YYYYMMDD":"20250912"},{"showID":108,"dateShow":"2025-07-05T19:30:00","dateDoors":"2025-07-05T18:00:00","dateLots":"","timeZone":"America/Denver","venue":"Folsom Field","altName":"Boulder","notes":"Capacity: 50,183","address":"2400 Colorado Ave","city":"Boulder","state":"CO","postal":"80305","country":"USA","phoneNbr":"","venueURL":"https://cubuffs.com/facilities/folsom-field/1","setlistURL":"http://phish.net/setlists/?d=2025-07-05","seatingURL":"https://cu_ftp.sidearmsports.com/custompages/www.cubuffs.com/fls/600/tickets/folsom_information_map.pdf","lat":"0.0","lng":"0.0","confidence":"0","placesPhotoReference":"","placesID":"","dateString":"12","monthString":"Sep","title":"Fri, Sep 12","YYYYMMDD":"20250912"},{"showID":109,"dateShow":"2025-07-09T19:30:00","dateDoors":"2025-07-09T18:00:00","dateLots":"","timeZone":"America/New_York","venue":"Schottenstein Center","altName":"Columbus","notes":"Capacity: 18,809","address":"555 Borror Dr","city":"Columbus","state":"CO","postal":"43210","country":"USA","phoneNbr":"614-688-3939","venueURL":"https://www.schottensteincenter.com/","setlistURL":"http://phish.net/setlists/?d=2025-07-09","seatingURL":"https://mapsapi.tmol.io/maps/geometry/3/event/05006186AEC62916/staticImage?type=png&systemId=HOST","lat":"0.0","lng":"0.0","confidence":"0","placesPhotoReference":"","placesID":"","dateString":"12","monthString":"Sep","title":"Fri, Sep 12","YYYYMMDD":"20250912"},{"showID":110,"dateShow":"2025-07-11T19:30:00","dateDoors":"2025-07-11T18:00:00","dateLots":"","timeZone":"America/New_York","venue":"North Charleston Coliseum","altName":"North Charleston","notes":"Capacity: 13,295","address":"5001 Coliseum Dr","city":"North Charleston","state":"SC","postal":"29418","country":"USA","phoneNbr":"843-529-5000","venueURL":"https://www.northcharlestoncoliseumpac.com/","setlistURL":"http://phish.net/setlists/?d=2025-07-11","seatingURL":"https://mapsapi.tmol.io/maps/geometry/3/event/2D0060CAC6BB5426/staticImage?type=png&systemId=HOST","lat":"0.0","lng":"0.0","confidence":"0","placesPhotoReference":"","placesID":"","dateString":"12","monthString":"Sep","title":"Fri, Sep 12","YYYYMMDD":"20250912"},{"showID":111,"dateShow":"2025-07-12T19:30:00","dateDoors":"2025-07-12T18:00:00","dateLots":"","timeZone":"America/New_York","venue":"North Charleston Coliseum","altName":"North Charleston","notes":"Capacity: 13,295","address":"5001 Coliseum Dr","city":"North Charleston","state":"SC","postal":"29418","country":"USA","phoneNbr":"843-529-5000","venueURL":"https://www.northcharlestoncoliseumpac.com/","setlistURL":"http://phish.net/setlists/?d=2025-07-12","seatingURL":"https://mapsapi.tmol.io/maps/geometry/3/event/2D0060CAC6BB5426/staticImage?type=png&systemId=HOST","lat":"0.0","lng":"0.0","confidence":"0","placesPhotoReference":"","placesID":"","dateString":"12","monthString":"Sep","title":"Fri, Sep 12","YYYYMMDD":"20250912"},{"showID":112,"dateShow":"2025-07-13T19:30:00","dateDoors":"2025-07-13T18:00:00","dateLots":"","timeZone":"America/New_York","venue":"North Charleston Coliseum","altName":"North Charleston","notes":"Capacity: 13,295","address":"5001 Coliseum Dr","city":"North Charleston","state":"SC","postal":"29418","country":"USA","phoneNbr":"843-529-5000","venueURL":"https://www.northcharlestoncoliseumpac.com/","setlistURL":"http://phish.net/setlists/?d=2025-07-13","seatingURL":"https://mapsapi.tmol.io/maps/geometry/3/event/2D0060CAC6BB5426/staticImage?type=png&systemId=HOST","lat":"0.0","lng":"0.0","confidence":"0","placesPhotoReference":"","placesID":"","dateString":"12","monthString":"Sep","title":"Fri, Sep 12","YYYYMMDD":"20250912"},{"showID":113,"dateShow":"2025-07-15T19:30:00","dateDoors":"2025-07-15T18:00:00","dateLots":"","timeZone":"America/New_York","venue":"The Mann Center","altName":"Philadelphia","notes":"Capacity: 14,000","address":"5201 Parkside Ave","city":"Philadelphia","state":"PA","postal":"19131","country":"USA","phoneNbr":"215-546-7900","venueURL":"https://manncenter.org/","setlistURL":"http://phish.net/setlists/?d=2025-07-15","seatingURL":"https://mapsapi.tmol.io/maps/geometry/3/event/0200616B94DF1794/staticImage?type=png&systemId=HOST","lat":"0.0","lng":"0.0","confidence":"0","placesPhotoReference":"","placesID":"","dateString":"12","monthString":"Sep","title":"Fri, Sep 12","YYYYMMDD":"20250912"},{"showID":114,"dateShow":"2025-07-16T19:30:00","dateDoors":"2025-07-16T18:00:00","dateLots":"","timeZone":"America/New_York","venue":"The Mann Center","altName":"Philadelphia","notes":"Capacity: 14,000","address":"5201 Parkside Ave","city":"Philadelphia","state":"PA","postal":"19131","country":"USA","phoneNbr":"215-546-7900","venueURL":"https://manncenter.org/","setlistURL":"http://phish.net/setlists/?d=2025-07-16","seatingURL":"https://mapsapi.tmol.io/maps/geometry/3/event/0200616B94DF1794/staticImage?type=png&systemId=HOST","lat":"0.0","lng":"0.0","confidence":"0","placesPhotoReference":"","placesID":"","dateString":"12","monthString":"Sep","title":"Fri, Sep 12","YYYYMMDD":"20250912"},{"showID":115,"dateShow":"2025-07-18T19:30:00","dateDoors":"2025-07-18T18:00:00","dateLots":"","timeZone":"America/New_York","venue":"United Center","altName":"Chicago","notes":"Capacity: 23,500","address":"1901 W Madison","city":"Chicago","state":"IL","postal":"60612","country":"USA","phoneNbr":"","venueURL":"https://www.unitedcenter.com/","setlistURL":"http://phish.net/setlists/?d=2025-07-18","seatingURL":"https://mapsapi.tmol.io/maps/geometry/3/event/05006186AEC62916/staticImage?type=png&systemId=HOST","lat":"0.0","lng":"0.0","confidence":"0","placesPhotoReference":"","placesID":"","dateString":"12","monthString":"Sep","title":"Fri, Sep 12","YYYYMMDD":"20250912"},{"showID":116,"dateShow":"2025-07-19T19:30:00","dateDoors":"2025-07-19T18:00:00","dateLots":"","timeZone":"America/New_York","venue":"United Center","altName":"Chicago","notes":"Capacity: 23,500","address":"1901 W Madison","city":"Chicago","state":"IL","postal":"60612","country":"USA","phoneNbr":"","venueURL":"https://www.unitedcenter.com/","setlistURL":"http://phish.net/setlists/?d=2025-07-19","seatingURL":"https://mapsapi.tmol.io/maps/geometry/3/event/04006188E7912591/staticImage?type=png&systemId=HOST","lat":"0.0","lng":"0.0","confidence":"0","placesPhotoReference":"","placesID":"","dateString":"12","monthString":"Sep","title":"Fri, Sep 12","YYYYMMDD":"20250912"},{"showID":117,"dateShow":"2025-07-20T19:30:00","dateDoors":"2025-07-20T18:00:00","dateLots":"","timeZone":"America/New_York","venue":"United Center","altName":"Chicago","notes":"Capacity: 23,500","address":"1901 W Madison","city":"Chicago","state":"IL","postal":"60612","country":"USA","phoneNbr":"","venueURL":"https://www.unitedcenter.com/","setlistURL":"http://phish.net/setlists/?d=2025-07-20","seatingURL":"https://mapsapi.tmol.io/maps/geometry/3/event/04006188E7912591/staticImage?type=png&systemId=HOST","lat":"0.0","lng":"0.0","confidence":"0","placesPhotoReference":"","placesID":"","dateString":"12","monthString":"Sep","title":"Fri, Sep 12","YYYYMMDD":"20250912"},{"showID":118,"dateShow":"2025-07-22T18:00:00","dateDoors":"2025-07-22T16:30:00","dateLots":"","timeZone":"America/New_York","venue":"Forest Hils Stadium","altName":"Forest Hills","notes":"","address":"1 Tennis Pl","city":"Forest Hills","state":"NY","postal":"11375","country":"USA","phoneNbr":"888-929-7849","venueURL":"https://creditonestadium.com/","setlistURL":"http://phish.net/setlists/?d=2025-07-22","seatingURL":"https://content.resale.ticketmaster.com/graphics/TMResale/2/VenueMaps/586-8113-2-0-ForestHillsStadium71524.png","lat":"0.0","lng":"0.0","confidence":"0","placesPhotoReference":"","placesID":"","dateString":"12","monthString":"Sep","title":"Fri, Sep 12","YYYYMMDD":"20250912"},{"showID":119,"dateShow":"2025-07-23T18:00:00","dateDoors":"2025-07-23T16:30:00","dateLots":"","timeZone":"America/New_York","venue":"Forest Hils Stadium","altName":"Forest Hills","notes":"","address":"1 Tennis Pl","city":"Forest Hills","state":"NY","postal":"11375","country":"USA","phoneNbr":"888-929-7849","venueURL":"https://creditonestadium.com/","setlistURL":"http://phish.net/setlists/?d=2025-07-23","seatingURL":"https://content.resale.ticketmaster.com/graphics/TMResale/2/VenueMaps/586-8113-2-0-ForestHillsStadium71524.png","lat":"0.0","lng":"0.0","confidence":"0","placesPhotoReference":"","placesID":"","dateString":"12","monthString":"Sep","title":"Fri, Sep 12","YYYYMMDD":"20250912"},{"showID":120,"dateShow":"2025-07-25T19:30:00","dateDoors":"2025-07-25T18:00:00","dateLots":"","timeZone":"America/New_York","venue":"Broadview Stage at SPAC","altName":"Saratoga Springs","notes":"Capacity: 25,100","address":"108 Avenue of the Pines","city":"Saratoga Springs","state":"NY","postal":"12866","country":"USA","phoneNbr":"518-584-9330","venueURL":"https://spac.org/","setlistURL":"http://phish.net/setlists/?d=2025-07-25","seatingURL":"https://mapsapi.tmol.io/maps/geometry/3/event/0000618DA2042C5B/staticImage?type=png&systemId=HOST","lat":"0.0","lng":"0.0","confidence":"0","placesPhotoReference":"","placesID":"","dateString":"12","monthString":"Sep","title":"Fri, Sep 12","YYYYMMDD":"20250912"},{"showID":121,"dateShow":"2025-07-26T19:30:00","dateDoors":"2025-07-26T18:00:00","dateLots":"","timeZone":"America/New_York","venue":"Broadview Stage at SPAC","altName":"Saratoga Springs","notes":"Capacity: 25,100","address":"108 Avenue of the Pines","city":"Saratoga Springs","state":"NY","postal":"12866","country":"USA","phoneNbr":"518-584-9330","venueURL":"https://spac.org/","setlistURL":"http://phish.net/setlists/?d=2025-07-26","seatingURL":"https://mapsapi.tmol.io/maps/geometry/3/event/0000618DA2042C5B/staticImage?type=png&systemId=HOST","lat":"0.0","lng":"0.0","confidence":"0","placesPhotoReference":"","placesID":"","dateString":"12","monthString":"Sep","title":"Fri, Sep 12","YYYYMMDD":"20250912"},{"showID":122,"dateShow":"2025-07-27T19:30:00","dateDoors":"2025-07-27T18:00:00","dateLots":"","timeZone":"America/New_York","venue":"Broadview Stage at SPAC","altName":"Saratoga Springs","notes":"Capacity: 25,100","address":"108 Avenue of the Pines","city":"Saratoga Springs","state":"NY","postal":"12866","country":"USA","phoneNbr":"518-584-9330","venueURL":"https://spac.org/","setlistURL":"http://phish.net/setlists/?d=2025-07-27","seatingURL":"https://mapsapi.tmol.io/maps/geometry/3/event/0000618DA2042C5B/staticImage?type=png&systemId=HOST","lat":"0.0","lng":"0.0","confidence":"0","placesPhotoReference":"","placesID":"","dateString":"12","monthString":"Sep","title":"Fri, Sep 12","YYYYMMDD":"20250912"},{"showID":123,"dateShow":"2025-09-12T19:30:00","dateDoors":"","dateLots":"","timeZone":"America/Chicago","venue":"Highland Festival Grounds","altName":"Louisville","notes":"Bourbon & Beyond Festival","address":"1016 Phillips Ln","city":"Louisville","state":"KY","postal":"40209","country":"USA","phoneNbr":"","venueURL":"https://bourbonandbeyond.com/","setlistURL":"http://phish.net/setlists/?d=2025-09-12","seatingURL":"https://bourbonandbeyond.com/wp-content/uploads/2025/01/BB25_Ticketing_Map_V8.jpg","lat":"38.1954628","lng":"-85.7359036","confidence":"1","placesPhotoReference":"AVzFdblredLGStPvtEY15juxmGk9xao3AadpoakS9DHM1meR03ZMpJ-y7DLFqRZof9D2KuFg7wi6ws2YpsXFtT2asnt_9QATVqjBOo9AY9mpuKrwoXHxbcwS93jbVgnoSUoUT2lHAVGPu95X-WTid3zp2Y07cZT0GeX2Mi411SxgB9j6ugYO","placesID":"ChIJqXeOinoNaYgRV8A9S42qO10","dateString":"12","monthString":"Sep","title":"Fri, Sep 12","YYYYMMDD":"20250912"}]