[{"showID":0,"dateShow":"2022-01-20T20:00:00","dateDoors":"2022-01-20T19:00:00","dateLots":"","timeZone":"America/New_York","venue":"Town Ballroom","altName":"Buffalo","notes":"An Evening With","address":"681 Main St","city":"Buffalo","state":"NY","postal":"14203","country":"USA","phoneNbr":"716-852-3900","venueURL":"https://townballroom.com/","setlistURL":"http://allthings.umphreys.com/setlists/#setlist-2022-01-20","seatingURL":"http://theitourapp.com/data/GA.png","lat":"0.0","lng":"0.0","confidence":"0","placesPhotoReference":"","placesID":"","dateString":"25","monthString":"Mar","title":"Fri, Mar 25","YYYYMMDD":"20220325"},{"showID":1,"dateShow":"2022-01-21T19:30:00","dateDoors":"2022-01-21T18:30:00","dateLots":"","timeZone":"America/New_York","venue":"Landmark Theatre","altName":"Syracuse","notes":"An Evening With","address":"362 Salina St","city":"Syracuse","state":"NY","postal":"13202","country":"USA","phoneNbr":"315-475-7979","venueURL":"https://landmarktheatre.org/","setlistURL":"http://allthings.umphreys.com/setlists/#setlist-2022-01-21","seatingURL":"https://maps.ticketmaster.com/maps/geometry/3/event/00005B5CC283630B/staticImage?type=png&systemId=HOST","lat":"0.0","lng":"0.0","confidence":"0","placesPhotoReference":"","placesID":"","dateString":"25","monthString":"Mar","title":"Fri, Mar 25","YYYYMMDD":"20220325"},{"showID":2,"dateShow":"2022-01-22T20:00:00","dateDoors":"2022-01-22T19:00:00","dateLots":"","timeZone":"America/New_York","venue":"Palace Theatre","altName":"Albany","notes":"An Evening With","address":"19 Clinton Ave","city":"Albany","state":"NY","postal":"122207","country":"USA","phoneNbr":"518-465-3335","venueURL":"https://www.palacealbany.org/","setlistURL":"http://allthings.umphreys.com/setlists/#setlist-2022-01-22","seatingURL":"https://maps.ticketmaster.com/maps/geometry/3/event/00005B62A2476E4C/staticImage?type=png&systemId=HOST","lat":"0.0","lng":"0.0","confidence":"0","placesPhotoReference":"","placesID":"","dateString":"25","monthString":"Mar","title":"Fri, Mar 25","YYYYMMDD":"20220325"},{"showID":3,"dateShow":"2022-01-23T20:30:00","dateDoors":"2022-01-22T19:00:00","dateLots":"","timeZone":"America/New_York","venue":"Penn's Peak","altName":"Jim Thorpe","notes":"An Evening With","address":"325 Maury Rd","city":"Jim Thorpe","state":"PA","postal":"18229","country":"USA","phoneNbr":"518-465-3335","venueURL":"https://www.pennspeak.com/","setlistURL":"http://allthings.umphreys.com/setlists/#setlist-2022-01-23","seatingURL":"https://maps.ticketmaster.com/maps/geometry/3/event/02005B6199AF3706/staticImage?type=png&systemId=HOST","lat":"0.0","lng":"0.0","confidence":"0","placesPhotoReference":"","placesID":"","dateString":"25","monthString":"Mar","title":"Fri, Mar 25","YYYYMMDD":"20220325"},{"showID":4,"dateShow":"2022-01-27T20:00:00","dateDoors":"2022-01-27T19:00:00","dateLots":"","timeZone":"America/New_York","venue":"PromoWest Pavilion at Ovation","altName":"Newport","notes":"An Evening With","address":"101 W 4th St","city":"Newport","state":"KY","postal":"41071","country":"USA","phoneNbr":"859-900-2294","venueURL":"https://promowestlive.com/cincinnati/promowest-pavilion-at-ovation","setlistURL":"http://allthings.umphreys.com/setlists/#setlist-2022-01-27","seatingURL":"http://theitourapp.com/data/GA.png","lat":"0.0","lng":"0.0","confidence":"0","placesPhotoReference":"","placesID":"","dateString":"25","monthString":"Mar","title":"Fri, Mar 25","YYYYMMDD":"20220325"},{"showID":5,"dateShow":"2022-01-28T20:00:00","dateDoors":"2022-01-28T19:00:00","dateLots":"","timeZone":"America/New_York","venue":"The Fillmore","altName":"Detroit","notes":"An Evening With","address":"2115 Woodward Ave","city":"Detroit","state":"MI","postal":"48201","country":"USA","phoneNbr":"313-961-5451","venueURL":"https://www.thefillmoredetroit.com/","setlistURL":"http://allthings.umphreys.com/setlists/#setlist-2022-01-28","seatingURL":"https://maps.ticketmaster.com/maps/geometry/3/event/08005B612FE255C2/staticImage?type=png&systemId=HOST","lat":"0.0","lng":"0.0","confidence":"0","placesPhotoReference":"","placesID":"","dateString":"25","monthString":"Mar","title":"Fri, Mar 25","YYYYMMDD":"20220325"},{"showID":6,"dateShow":"2022-01-29T20:00:00","dateDoors":"2022-01-29T19:00:00","dateLots":"","timeZone":"America/New_York","venue":"The Fillmore","altName":"Detroit","notes":"An Evening With","address":"2115 Woodward Ave","city":"Detroit","state":"MI","postal":"48201","country":"USA","phoneNbr":"313-961-5451","venueURL":"https://www.thefillmoredetroit.com/","setlistURL":"http://allthings.umphreys.com/setlists/#setlist-2022-01-29","seatingURL":"https://maps.ticketmaster.com/maps/geometry/3/event/08005B612FE255C2/staticImage?type=png&systemId=HOST","lat":"0.0","lng":"0.0","confidence":"0","placesPhotoReference":"","placesID":"","dateString":"25","monthString":"Mar","title":"Fri, Mar 25","YYYYMMDD":"20220325"},{"showID":7,"dateShow":"2022-01-30T20:00:00","dateDoors":"2022-01-30T19:00:00","dateLots":"","timeZone":"America/New_York","venue":"House of Blues","altName":"Cleveland","notes":"An Evening With","address":"308 Euclid Ave","city":"Cleveland","state":"OH","postal":"44114","country":"USA","phoneNbr":"216-523-2583","venueURL":"https://www.houseofblues.com/cleveland","setlistURL":"http://allthings.umphreys.com/setlists/#setlist-2022-01-30","seatingURL":"https://maps.ticketmaster.com/maps/geometry/3/event/05005B5DB66B4192/staticImage?type=png&systemId=HOST","lat":"0.0","lng":"0.0","confidence":"0","placesPhotoReference":"","placesID":"","dateString":"25","monthString":"Mar","title":"Fri, Mar 25","YYYYMMDD":"20220325"},{"showID":8,"dateShow":"2022-02-09T20:00:00","dateDoors":"2022-02-09T19:00:00","dateLots":"","timeZone":"America/New_York","venue":"Brooklyn Bowl","altName":"Philadelphia","notes":"An Evening With","address":"1009 Canal St","city":"Philadelphia","state":"PA","postal":"19123","country":"USA","phoneNbr":"215-606-4950","venueURL":"https://www.brooklynbowl.com/philadelphia","setlistURL":"http://allthings.umphreys.com/setlists/#setlist-2022-02-09","seatingURL":"http://theitourapp.com/data/GA.png","lat":"0.0","lng":"0.0","confidence":"0","placesPhotoReference":"","placesID":"","dateString":"25","monthString":"Mar","title":"Fri, Mar 25","YYYYMMDD":"20220325"},{"showID":9,"dateShow":"2022-02-10T20:00:00","dateDoors":"2022-02-10T19:00:00","dateLots":"","timeZone":"America/New_York","venue":"College Street Music Hall","altName":"New Haven","notes":"An Evening With","address":"238 College St","city":"New Haven","state":"CT","postal":"06510","country":"USA","phoneNbr":"203-867-2000","venueURL":"https://collegestreetmusichall.com/","setlistURL":"http://allthings.umphreys.com/setlists/#setlist-2022-02-10","seatingURL":"http://theitourapp.com/data/GA.png","lat":"0.0","lng":"0.0","confidence":"0","placesPhotoReference":"","placesID":"","dateString":"25","monthString":"Mar","title":"Fri, Mar 25","YYYYMMDD":"20220325"},{"showID":10,"dateShow":"2022-02-11T19:00:00","dateDoors":"2022-02-11T18:00:00","dateLots":"","timeZone":"America/New_York","venue":"House of Blues","altName":"Boston","notes":"with Lespecial","address":"15 Landsdown St","city":"Boston","state":"MA","postal":"02215","country":"USA","phoneNbr":"888-693-2583","venueURL":"https://www.houseofblues.com/boston","setlistURL":"http://allthings.umphreys.com/setlists/#setlist-2022-02-11","seatingURL":"https://maps.ticketmaster.com/maps/geometry/3/event/01005AF4922D25D6/staticImage?type=png&systemId=HOST","lat":"0.0","lng":"0.0","confidence":"0","placesPhotoReference":"","placesID":"","dateString":"25","monthString":"Mar","title":"Fri, Mar 25","YYYYMMDD":"20220325"},{"showID":11,"dateShow":"2022-02-12T19:00:00","dateDoors":"2022-02-12T18:00:00","dateLots":"","timeZone":"America/New_York","venue":"House of Blues","altName":"Boston","notes":"with Lespecial","address":"15 Landsdown St","city":"Boston","state":"MA","postal":"02215","country":"USA","phoneNbr":"888-693-2583","venueURL":"https://www.houseofblues.com/boston","setlistURL":"http://allthings.umphreys.com/setlists/#setlist-2022-02-12","seatingURL":"https://maps.ticketmaster.com/maps/geometry/3/event/01005AF4922D25D6/staticImage?type=png&systemId=HOST","lat":"0.0","lng":"0.0","confidence":"0","placesPhotoReference":"","placesID":"","dateString":"25","monthString":"Mar","title":"Fri, Mar 25","YYYYMMDD":"20220325"},{"showID":12,"dateShow":"2022-02-17T20:00:00","dateDoors":"2022-02-17T19:00:00","dateLots":"","timeZone":"America/New_York","venue":"EXPRESS LIVE!","altName":"Columbus","notes":"An Evening With","address":"405 Neil Ave","city":"Columbus","state":"OH","postal":"43215","country":"USA","phoneNbr":"614-461-5483","venueURL":"https://promowestlive.com/our-venues/express-live","setlistURL":"http://allthings.umphreys.com/setlists/#setlist-2022-02-17","seatingURL":"http://theitourapp.com/data/GA.png","lat":"0.0","lng":"0.0","confidence":"0","placesPhotoReference":"","placesID":"","dateString":"25","monthString":"Mar","title":"Fri, Mar 25","YYYYMMDD":"20220325"},{"showID":13,"dateShow":"2022-02-18T20:00:00","dateDoors":"2022-02-18T18:30:00","dateLots":"","timeZone":"America/New_York","venue":"The Anthem","altName":"Washington","notes":"An Evening With","address":"901 Wharf St SW","city":"Washington","state":"DC","postal":"20024","country":"USA","phoneNbr":"202-888-0020","venueURL":"https://theanthemdc.com/","setlistURL":"http://allthings.umphreys.com/setlists/#setlist-2022-02-18","seatingURL":"https://maps.ticketmaster.com/maps/geometry/3/event/15005B5EF77F58AA/staticImage?type=png&systemId=HOST","lat":"0.0","lng":"0.0","confidence":"0","placesPhotoReference":"","placesID":"","dateString":"25","monthString":"Mar","title":"Fri, Mar 25","YYYYMMDD":"20220325"},{"showID":14,"dateShow":"2022-02-19T20:00:00","dateDoors":"2022-02-19T19:00:00","dateLots":"","timeZone":"America/New_York","venue":"The Ritz","altName":"Raleigh","notes":"An Evening With","address":"2820 Industrial Dr","city":"Raleigh","state":"NC","postal":"27609","country":"USA","phoneNbr":"919-424-1400","venueURL":"https://www.livenation.com/venue/KovZpZAJIedA/the-ritz-events","setlistURL":"http://allthings.umphreys.com/setlists/#setlist-2022-02-19","seatingURL":"https://maps.ticketmaster.com/maps/geometry/3/event/2D005B5D1245779F/staticImage?type=png&systemId=HOST","lat":"0.0","lng":"0.0","confidence":"0","placesPhotoReference":"","placesID":"","dateString":"25","monthString":"Mar","title":"Fri, Mar 25","YYYYMMDD":"20220325"},{"showID":15,"dateShow":"2022-02-20T20:00:00","dateDoors":"2022-02-20T18:30:00","dateLots":"","timeZone":"America/New_York","venue":"The Signal","altName":"Chattanooga","notes":"An Evening With","address":"1810 Chestnut St","city":"Chattanooga","state":"TN","postal":"37408","country":"USA","phoneNbr":"423-498-4700","venueURL":"https://www.thesignaltn.com/","setlistURL":"http://allthings.umphreys.com/setlists/#setlist-2022-02-20","seatingURL":"http://theitourapp.com/data/GA.png","lat":"0.0","lng":"0.0","confidence":"0","placesPhotoReference":"","placesID":"","dateString":"25","monthString":"Mar","title":"Fri, Mar 25","YYYYMMDD":"20220325"},{"showID":16,"dateShow":"2022-02-25T19:00:00","dateDoors":"2022-02-25T18:00:00","dateLots":"","timeZone":"America/New_York","venue":"Harrah's Cherokee Center Arena","altName":"Asheville","notes":"with Lespecial","address":"87 Haywood St","city":"Asheville","state":"NC","postal":"28801","country":"USA","phoneNbr":"828-259-5736","venueURL":"https://www.harrahscherokeecenterasheville.com/","setlistURL":"http://allthings.umphreys.com/setlists/#setlist-2022-02-25","seatingURL":"https://maps.ticketmaster.com/maps/geometry/3/event/2D005B8936DF7E37/staticImage?type=png&systemId=HOST","lat":"0.0","lng":"0.0","confidence":"0","placesPhotoReference":"","placesID":"","dateString":"25","monthString":"Mar","title":"Fri, Mar 25","YYYYMMDD":"20220325"},{"showID":17,"dateShow":"2022-02-26T19:00:00","dateDoors":"2022-02-26T18:00:00","dateLots":"","timeZone":"America/New_York","venue":"Harrah's Cherokee Center Arena","altName":"Asheville","notes":"with Lespecial","address":"87 Haywood St","city":"Asheville","state":"NC","postal":"28801","country":"USA","phoneNbr":"828-259-5736","venueURL":"https://www.harrahscherokeecenterasheville.com/","setlistURL":"http://allthings.umphreys.com/setlists/#setlist-2022-02-26","seatingURL":"https://maps.ticketmaster.com/maps/geometry/3/event/2D005B8936DF7E37/staticImage?type=png&systemId=HOST","lat":"0.0","lng":"0.0","confidence":"0","placesPhotoReference":"","placesID":"","dateString":"25","monthString":"Mar","title":"Fri, Mar 25","YYYYMMDD":"20220325"},{"showID":18,"dateShow":"2022-03-18T20:00:00","dateDoors":"2022-03-18T19:00:00","dateLots":"","timeZone":"America/Denver","venue":"Belly Up","altName":"Aspen","notes":"An Evening With","address":"450 S Galena St","city":"Aspen","state":"CO","postal":"81611","country":"USA","phoneNbr":"970-544-9800","venueURL":"https://bellyupaspen.com/","setlistURL":"http://allthings.umphreys.com/setlists/#setlist-2022-03-18","seatingURL":"https://maps.ticketmaster.com/maps/geometry/3/event/2D005B8936DF7E37/staticImage?type=png&systemId=HOST","lat":"0.0","lng":"0.0","confidence":"0","placesPhotoReference":"","placesID":"","dateString":"25","monthString":"Mar","title":"Fri, Mar 25","YYYYMMDD":"20220325"},{"showID":19,"dateShow":"2022-03-19T20:00:00","dateDoors":"2022-03-19T19:00:00","dateLots":"","timeZone":"America/Denver","venue":"Belly Up","altName":"Aspen","notes":"An Evening With","address":"450 S Galena St","city":"Aspen","state":"CO","postal":"81611","country":"USA","phoneNbr":"970-544-9800","venueURL":"https://bellyupaspen.com/","setlistURL":"http://allthings.umphreys.com/setlists/#setlist-2022-03-19","seatingURL":"https://maps.ticketmaster.com/maps/geometry/3/event/2D005B8936DF7E37/staticImage?type=png&systemId=HOST","lat":"0.0","lng":"0.0","confidence":"0","placesPhotoReference":"","placesID":"","dateString":"25","monthString":"Mar","title":"Fri, Mar 25","YYYYMMDD":"20220325"},{"showID":20,"dateShow":"2022-03-20T20:00:00","dateDoors":"2022-03-20T19:00:00","dateLots":"","timeZone":"America/Denver","venue":"Belly Up","altName":"Aspen","notes":"An Evening With","address":"450 S Galena St","city":"Aspen","state":"CO","postal":"81611","country":"USA","phoneNbr":"970-544-9800","venueURL":"https://bellyupaspen.com/","setlistURL":"http://allthings.umphreys.com/setlists/#setlist-2022-03-20","seatingURL":"https://maps.ticketmaster.com/maps/geometry/3/event/2D005B8936DF7E37/staticImage?type=png&systemId=HOST","lat":"0.0","lng":"0.0","confidence":"0","placesPhotoReference":"","placesID":"","dateString":"25","monthString":"Mar","title":"Fri, Mar 25","YYYYMMDD":"20220325"}]