[{"showID":100,"dateShow":"2022-06-10T20:00:00","dateDoors":"","dateLots":"","timeZone":"America/Los_Angeles","venue":"Black Oak Ranch","altName":"Laytonville","notes":"The Hog Farm Hangout","address":"505350, US-101","city":"Laytonville","state":"CA","postal":"95454","country":"USA","phoneNbr":"","venueURL":"https://www.hogfarmhangout.com/","setlistURL":"http://friendsofcheese.com/incidents.php?cat=year&year=2022","seatingURL":"https://www.hogfarmhangout.com/","lat":"39.745264","lng":"-123.523188","confidence":"1","placesPhotoReference":"CmRaAAAAAkMU-rimaP159mwfOFrvLZVE0KeplT6p9PQ1Xzi4ayjnOUktcP2ivhMY7Sa83wufYx20W-f8oMA_n0JAsgR3f-_Xn6u8-xLGNFwHhJSkQjZk2QJ_5oIAwt2PlaR0O7nxEhC5fwHmMUCW7Byy4g2fA_VyGhSmFiNJEOutnT3wY5jRMHPRGl2y8w","placesID":"39808aa83326831b02830a3326b4dd06aa6c0ef0","dateString":"10","monthString":"Jun","title":"Fri, Jun 10","YYYYMMDD":"20220610"},{"showID":101,"dateShow":"2021-06-11T20:00:00","dateDoors":"","dateLots":"","timeZone":"America/Los_Angeles","venue":"Black Oak Ranch","altName":"Laytonville","notes":"The Hog Farm Hangout","address":"505350, US-101","city":"Laytonville","state":"CA","postal":"95454","country":"USA","phoneNbr":"","venueURL":"https://www.hogfarmhangout.com/","setlistURL":"http://friendsofcheese.com/incidents.php?cat=year&year=2022","seatingURL":"https://www.hogfarmhangout.com/","lat":"39.745264","lng":"-123.523188","confidence":"1","placesPhotoReference":"CmRaAAAAUv7ssB0zqDJqO5U3lTCEbGu1wg_AbGESG3tFF09KaOitv-k1WKONExb40aUsod63XOqXijLqjpaQ2PsHJDeFEzp0aK1yoh90n3oWdEi3H6ug-ryxQGWJAN2fT0Yf2lZxEhCHetM148FP8WNoFL4uDpqUGhQgWhiTw8jYeNeGhqHuYzxA6dyG0A","placesID":"39808aa83326831b02830a3326b4dd06aa6c0ef0","dateString":"11","monthString":"Jun","title":"Fri, Jun 11","YYYYMMDD":"20210611"},{"showID":102,"dateShow":"2021-06-13T20:00:00","dateDoors":"","dateLots":"","timeZone":"America/Los_Angeles","venue":"Black Oak Ranch","altName":"Laytonville","notes":"The Hog Farm Hangout","address":"505350, US-101","city":"Laytonville","state":"CA","postal":"95454","country":"USA","phoneNbr":"","venueURL":"https://www.hogfarmhangout.com/","setlistURL":"http://friendsofcheese.com/incidents.php?cat=year&year=2022","seatingURL":"https://www.hogfarmhangout.com/","lat":"39.745264","lng":"-123.523188","confidence":"1","placesPhotoReference":"CmRaAAAAOvE_hE91X2n2jdDDFzG53FEdkDOs6JbWOd-qqxiJPFu2JzXwWTUtHD21uxME8CVMxDjARNeQ4EywXVURWvmw9eNWJK8Cu0KAggLawX3FrsPWWQpp4TBrlKlI_V3CUmMeEhAHrfBZUCmVTpGshtItIhPNGhQSHqdIQODxY-OOi7iawpucjYddrQ","placesID":"39808aa83326831b02830a3326b4dd06aa6c0ef0","dateString":"13","monthString":"Jun","title":"Sun, Jun 13","YYYYMMDD":"20210613"},{"showID":103,"dateShow":"2021-06-24T20:00:00","dateDoors":"","dateLots":"","timeZone":"America/New_York","venue":"Electric Forest","altName":"Rothbury","notes":"","address":"7100 South Water Road","city":"Rothbury","state":"MI","postal":"49437","country":"USA","phoneNbr":"","venueURL":"https://electricforestfestival.com/","setlistURL":"http://friendsofcheese.com/incidents.php?cat=year&year=2022","seatingURL":"https://electricforestfestival.com/wp-content/uploads/2021/12/EF2022_CampingAreaMap-scaled.jpg","lat":"0.0","lng":"0.0","confidence":"0","placesPhotoReference":"","placesID":"","dateString":"13","monthString":"Jun","title":"Sun, Jun 13","YYYYMMDD":"20210613"},{"showID":104,"dateShow":"2021-06-25T20:00:00","dateDoors":"","dateLots":"","timeZone":"America/New_York","venue":"Electric Forest","altName":"Rothbury","notes":"","address":"7100 South Water Road","city":"Rothbury","state":"MI","postal":"49437","country":"USA","phoneNbr":"","venueURL":"https://electricforestfestival.com/","setlistURL":"http://friendsofcheese.com/incidents.php?cat=year&year=2022","seatingURL":"https://electricforestfestival.com/wp-content/uploads/2021/12/EF2022_CampingAreaMap-scaled.jpg","lat":"0.0","lng":"0.0","confidence":"0","placesPhotoReference":"","placesID":"","dateString":"13","monthString":"Jun","title":"Sun, Jun 13","YYYYMMDD":"20210613"},{"showID":105,"dateShow":"2021-06-26T20:00:00","dateDoors":"","dateLots":"","timeZone":"America/New_York","venue":"Electric Forest","altName":"Rothbury","notes":"","address":"7100 South Water Road","city":"Rothbury","state":"MI","postal":"49437","country":"USA","phoneNbr":"","venueURL":"https://electricforestfestival.com/","setlistURL":"http://friendsofcheese.com/incidents.php?cat=year&year=2022","seatingURL":"https://electricforestfestival.com/wp-content/uploads/2021/12/EF2022_CampingAreaMap-scaled.jpg","lat":"0.0","lng":"0.0","confidence":"0","placesPhotoReference":"","placesID":"","dateString":"13","monthString":"Jun","title":"Sun, Jun 13","YYYYMMDD":"20210613"},{"showID":106,"dateShow":"2021-07-12T18:00:00","dateDoors":"2021-07-12T17:00:00","dateLots":"","timeZone":"America/Denver","venue":"Dillon Amphitheater","altName":"Dillon","notes":"","address":"201 W Lodgepole St","city":"Dillon","state":"CO","postal":"80435","country":"USA","phoneNbr":"970-468-2403","venueURL":"https://dillonamphitheater.com/","setlistURL":"https://friendsofcheese.com/incident.php?id=1770","seatingURL":"https://dillonamphitheater.com/templates/yootheme/cache/seating-chart-2-ga-1-722x1030-a9850fc8.webp","lat":"0.0","lng":"0.0","confidence":"0","placesPhotoReference":"","placesID":"","dateString":"13","monthString":"Jun","title":"Sun, Jun 13","YYYYMMDD":"20210613"},{"showID":107,"dateShow":"2021-07-13T18:00:00","dateDoors":"2021-07-13T17:00:00","dateLots":"","timeZone":"America/Denver","venue":"Dillon Amphitheater","altName":"Dillon","notes":"","address":"201 W Lodgepole St","city":"Dillon","state":"CO","postal":"80435","country":"USA","phoneNbr":"970-468-2403","venueURL":"https://dillonamphitheater.com/","setlistURL":"https://friendsofcheese.com/incident.php?id=1771","seatingURL":"https://dillonamphitheater.com/templates/yootheme/cache/seating-chart-2-ga-1-722x1030-a9850fc8.webp","lat":"0.0","lng":"0.0","confidence":"0","placesPhotoReference":"","placesID":"","dateString":"13","monthString":"Jun","title":"Sun, Jun 13","YYYYMMDD":"20210613"},{"showID":108,"dateShow":"2021-07-15T19:00:00","dateDoors":"","dateLots":"","timeZone":"America/Denver","venue":"Red Rocks Amphitheatre","altName":"Morrison","notes":"with Yonder Mountain String Band","address":"18300 W Alameda Pkwy","city":"Morrison","state":"CO","postal":"80465","country":"USA","phoneNbr":"720-865-2494","venueURL":"https://www.redrocksonline.com/","setlistURL":"https://friendsofcheese.com/incident.php?id=1772","seatingURL":"http://www.theredrocksamphitheater.com/wp-content/uploads/2014/11/85fe6621-e32d-49ac-921c-37961233cb47.jpg","lat":"0.0","lng":"0.0","confidence":"0","placesPhotoReference":"","placesID":"","dateString":"13","monthString":"Jun","title":"Sun, Jun 13","YYYYMMDD":"20210613"},{"showID":109,"dateShow":"2021-07-16T19:00:00","dateDoors":"","dateLots":"","timeZone":"America/Denver","venue":"Red Rocks Amphitheatre","altName":"Morrison","notes":"with Leftover Salmon","address":"18300 W Alameda Pkwy","city":"Morrison","state":"CO","postal":"80465","country":"USA","phoneNbr":"720-865-2494","venueURL":"https://www.redrocksonline.com/","setlistURL":"https://friendsofcheese.com/incident.php?id=1773","seatingURL":"http://www.theredrocksamphitheater.com/wp-content/uploads/2014/11/85fe6621-e32d-49ac-921c-37961233cb47.jpg","lat":"0.0","lng":"0.0","confidence":"0","placesPhotoReference":"","placesID":"","dateString":"13","monthString":"Jun","title":"Sun, Jun 13","YYYYMMDD":"20210613"},{"showID":110,"dateShow":"2021-07-17T19:00:00","dateDoors":"","dateLots":"","timeZone":"America/Denver","venue":"Red Rocks Amphitheatre","altName":"Morrison","notes":"The Phil Lesh Incident","address":"18300 W Alameda Pkwy","city":"Morrison","state":"CO","postal":"80465","country":"USA","phoneNbr":"720-865-2494","venueURL":"https://www.redrocksonline.com/","setlistURL":"https://friendsofcheese.com/incident.php?id=1774","seatingURL":"http://www.theredrocksamphitheater.com/wp-content/uploads/2014/11/85fe6621-e32d-49ac-921c-37961233cb47.jpg","lat":"0.0","lng":"0.0","confidence":"0","placesPhotoReference":"","placesID":"","dateString":"13","monthString":"Jun","title":"Sun, Jun 13","YYYYMMDD":"20210613"}]