[{"showID":0,"dateShow":"2022-10-28T20:00:00","dateDoors":"","dateLots":"","timeZone":"America/New_York","venue":"Spirit of the Suwannee Music Park","altName":"Hulaween","notes":"","address":"3076 95th Dr","city":"Live Oak","state":"FL","postal":"32060","country":"USA","phoneNbr":"","venueURL":"https://www.musicliveshere.com/","setlistURL":"http://friendsofcheese.com/incident.php?id=1792","seatingURL":"https://suwanneehulaween.com/mobile-app/","lat":"30.394196","lng":"-82.944311","confidence":"1","placesPhotoReference":"","placesID":"","dateString":"28","monthString":"Oct","title":"Fri, Oct 28","YYYYMMDD":"20221028"},{"showID":1,"dateShow":"2022-10-29T20:00:00","dateDoors":"","dateLots":"","timeZone":"America/New_York","venue":"Spirit of the Suwannee Music Park","altName":"Hulaween","notes":"","address":"3076 95th Dr","city":"Live Oak","state":"FL","postal":"32060","country":"USA","phoneNbr":"","venueURL":"https://www.musicliveshere.com/","setlistURL":"http://friendsofcheese.com/incident.php?id=1793","seatingURL":"https://suwanneehulaween.com/mobile-app/","lat":"30.394196","lng":"-82.944311","confidence":"1","placesPhotoReference":"","placesID":"","dateString":"29","monthString":"Oct","title":"Sat, Oct 29","YYYYMMDD":"20221029"},{"showID":2,"dateShow":"2022-10-30T20:00:00","dateDoors":"","dateLots":"","timeZone":"America/New_York","venue":"Spirit of the Suwannee Music Park","altName":"Hulaween","notes":"","address":"3076 95th Dr","city":"Live Oak","state":"FL","postal":"32060","country":"USA","phoneNbr":"","venueURL":"https://www.musicliveshere.com/","setlistURL":"http://friendsofcheese.com/incident.php?id=1794","seatingURL":"https://suwanneehulaween.com/mobile-app/","lat":"30.394196","lng":"-82.944311","confidence":"1","placesPhotoReference":"","placesID":"","dateString":"30","monthString":"Oct","title":"Sun, Oct 30","YYYYMMDD":"20221030"},{"showID":3,"dateShow":"2022-10-31T20:00:00","dateDoors":"","dateLots":"","timeZone":"America/New_York","venue":"Spirit of the Suwannee Music Park","altName":"Hulaween","notes":"","address":"3076 95th Dr","city":"Live Oak","state":"FL","postal":"32060","country":"USA","phoneNbr":"","venueURL":"https://www.musicliveshere.com/","setlistURL":"http://friendsofcheese.com/incident.php?id=1795","seatingURL":"https://suwanneehulaween.com/mobile-app/","lat":"30.394196","lng":"-82.944311","confidence":"1","placesPhotoReference":"","placesID":"","dateString":"31","monthString":"Oct","title":"Mon, Oct 31","YYYYMMDD":"20221031"},{"showID":100,"dateShow":"2022-12-29T19:30:00","dateDoors":"","dateLots":"","timeZone":"America/Denver","venue":"Mission Ballroom","altName":"Denver","notes":"with Kanika Moor & Antwaun Stanley","address":"4242 Wynkoop St","city":"Denver","state":"CO","postal":"32060","country":"USA","phoneNbr":"720-577-6884","venueURL":"https://www.missionballroom.com/","setlistURL":"http://friendsofcheese.com/incident.php?id=1794","seatingURL":"http://theitourapp.com/data/GA.png","lat":"39.7762282","lng":"-104.9690955","confidence":"1","placesPhotoReference":"","placesID":"","dateString":"29","monthString":"Dec","title":"Thu, Dec 29","YYYYMMDD":"20221229"},{"showID":101,"dateShow":"2022-12-30T19:30:00","dateDoors":"","dateLots":"","timeZone":"America/Denver","venue":"Mission Ballroom","altName":"Denver","notes":"with Judith Hill","address":"4242 Wynkoop St","city":"Denver","state":"CO","postal":"32060","country":"USA","phoneNbr":"720-577-6884","venueURL":"https://www.missionballroom.com/","setlistURL":"http://friendsofcheese.com/incident.php?id=1795","seatingURL":"http://theitourapp.com/data/GA.png","lat":"39.7762282","lng":"-104.9690955","confidence":"1","placesPhotoReference":"","placesID":"","dateString":"30","monthString":"Dec","title":"Fri, Dec 30","YYYYMMDD":"20221230"},{"showID":102,"dateShow":"2022-12-31T19:30:00","dateDoors":"","dateLots":"","timeZone":"America/Denver","venue":"Mission Ballroom","altName":"Denver","notes":"","address":"4242 Wynkoop St","city":"Denver","state":"CO","postal":"32060","country":"USA","phoneNbr":"720-577-6884","venueURL":"https://www.missionballroom.com/","setlistURL":"http://friendsofcheese.com/incident.php?id=1796","seatingURL":"http://theitourapp.com/data/GA.png","lat":"39.7762282","lng":"-104.9690955","confidence":"1","placesPhotoReference":"","placesID":"","dateString":"31","monthString":"Dec","title":"Sat, Dec 31","YYYYMMDD":"20221231"},{"showID":200,"dateShow":"2023-01-21T19:30:00","dateDoors":"","dateLots":"","timeZone":"America/New_York","venue":"Jewel Paradise Cove","altName":"Runaway Bay","notes":"","address":"Silver Spray","city":"","state":"Runaway Bay","postal":"","country":"Jamaica","phoneNbr":"833-325-3935","venueURL":"https://www.thejamaicaincident.com/","setlistURL":"http://friendsofcheese.com/incident.php?id=1797","seatingURL":"https://www.thejamaicaincident.com/","lat":"18.4686278","lng":"-77.3161172","confidence":"0.7","placesPhotoReference":"","placesID":"","dateString":"21","monthString":"Jan","title":"Sat, Jan 21","YYYYMMDD":"20230121"},{"showID":201,"dateShow":"2023-01-22T19:30:00","dateDoors":"","dateLots":"","timeZone":"America/New_York","venue":"Jewel Paradise Cove","altName":"Runaway Bay","notes":"","address":"Silver Spray","city":"","state":"Runaway Bay","postal":"","country":"Jamaica","phoneNbr":"833-325-3935","venueURL":"https://www.thejamaicaincident.com/","setlistURL":"http://friendsofcheese.com/incident.php?id=1798","seatingURL":"https://www.thejamaicaincident.com/","lat":"18.4686278","lng":"-77.3161172","confidence":"0.7","placesPhotoReference":"","placesID":"","dateString":"22","monthString":"Jan","title":"Sun, Jan 22","YYYYMMDD":"20230122"},{"showID":202,"dateShow":"2023-01-23T19:30:00","dateDoors":"","dateLots":"","timeZone":"America/New_York","venue":"Jewel Paradise Cove","altName":"Runaway Bay","notes":"","address":"Silver Spray","city":"","state":"Runaway Bay","postal":"","country":"Jamaica","phoneNbr":"833-325-3935","venueURL":"https://www.thejamaicaincident.com/","setlistURL":"http://friendsofcheese.com/incident.php?id=1799","seatingURL":"https://www.thejamaicaincident.com/","lat":"18.4686278","lng":"-77.3161172","confidence":"0.7","placesPhotoReference":"","placesID":"","dateString":"23","monthString":"Jan","title":"Mon, Jan 23","YYYYMMDD":"20230123"},{"showID":203,"dateShow":"2023-01-24T19:30:00","dateDoors":"","dateLots":"","timeZone":"America/New_York","venue":"Jewel Paradise Cove","altName":"Runaway Bay","notes":"","address":"Silver Spray","city":"","state":"Runaway Bay","postal":"","country":"Jamaica","phoneNbr":"833-325-3935","venueURL":"https://www.thejamaicaincident.com/","setlistURL":"http://friendsofcheese.com/incident.php?id=1800","seatingURL":"https://www.thejamaicaincident.com/","lat":"18.4686278","lng":"-77.3161172","confidence":"0.7","placesPhotoReference":"","placesID":"","dateString":"24","monthString":"Jan","title":"Tue, Jan 24","YYYYMMDD":"20230124"},{"showID":300,"dateShow":"2023-02-05T19:30:00","dateDoors":"","dateLots":"","timeZone":"America/Phoenix","venue":"Pima County Fairgrounds","altName":"Tuscon","notes":"Gem & Jam Festival","address":"11300 S Houghton Rd","city":"Tuscon","state":"AZ","postal":85747,"country":"USA","phoneNbr":"520-762-9100","venueURL":"https://gemandjamfestival.com/","setlistURL":"http://friendsofcheese.com/incident.php?id=1801","seatingURL":"https://gemandjamfestival.com/","lat":"32.0446027","lng":"-110.7834165","confidence":"1","placesPhotoReference":"","placesID":"","dateString":"5","monthString":"Feb","title":"Sun, Feb 5","YYYYMMDD":"20230205"}]