[{"showID":100,"dateShow":"2023-05-09T21:00:00","dateDoors":"2023-05-09T21:00:00","dateLots":"","timeZone":"America/Mexico_City","venue":"Auditorio Nacional","altName":"Ciudad de México","notes":"Capacity: 10,000","address":"Av. Paseo de la Reforma 50","city":"Polanco V Secc, Miguel Hidalgo","state":"11560 Ciudad de México","postal":"CDMX","country":"México","phoneNbr":"+52 55 9138 1350","venueURL":"http://www.auditorio.com.mx/","setlistURL":"https://www.antsmarching.org/tour/ViewShow.php?ShowID=5071","seatingURL":"https://s1.ticketm.net/tmimages/venue/maps/mx2/101905s.gif","lat":"0.0","lng":"0.0","confidence":"0","placesPhotoReference":"","placesID":"","dateString":"19","monthString":"Mar","title":"Sun, Mar 19","YYYYMMDD":"20230319"},{"showID":101,"dateShow":"2023-05-11T21:00:00","dateDoors":"2023-05-11T21:00:00","dateLots":"","timeZone":"America/Monterrey","venue":"Auditorio Pabellón M","altName":"Monterrey","notes":"Capacity: 4,000","address":"Avenida Constitución sin","city":"Polanco V Secc, Miguel Hidalgo","state":"El N., Centro","postal":"N.L.","country":"México","phoneNbr":"+52 81 1759 2828","venueURL":"http://www.auditoriopabellonm.com/","setlistURL":"https://www.antsmarching.org/tour/ViewShow.php?ShowID=5072","seatingURL":"https://s1.ticketm.net/tmimages/venue/maps/mxc/98674s.gif","lat":"0.0","lng":"0.0","confidence":"0","placesPhotoReference":"","placesID":"","dateString":"19","monthString":"Mar","title":"Sun, Mar 19","YYYYMMDD":"20230319"},{"showID":102,"dateShow":"2023-05-13T21:00:00","dateDoors":"2023-05-13T21:00:00","dateLots":"","timeZone":"America/Monterrey","venue":"Teatro Diana","altName":"Guadalajara","notes":"Capacity: 2,345","address":"Av. 16 de Septiembre 710","city":"Centro","state":" 44460 Guadalajara","postal":"Jalisco","country":"México","phoneNbr":"+52 33 3613 8579","venueURL":"https://www.teatrodiana.com/","setlistURL":"https://www.antsmarching.org/tour/ViewShow.php?ShowID=5074","seatingURL":"https://s1.ticketm.net/tmimages/venue/maps/mxc/98303s.gif","lat":"0.0","lng":"0.0","confidence":"0","placesPhotoReference":"","placesID":"","dateString":"19","monthString":"Mar","title":"Sun, Mar 19","YYYYMMDD":"20230319"}]