[{"showID":0,"dateShow":"2022-06-11T17:30:00","dateDoors":"","dateLots":"","timeZone":"America/Los_Angeles","venue":"Dodger Stadium","altName":"Los Angeles","notes":"","address":"1000 Vin Scully Ave","city":"Los Angeles","state":"CA","postal":"90012","country":"USA","phoneNbr":"866-363-4377","venueURL":"https://www.mlb.com/dodgers/ballpark","setlistURL":"https://www.setlist.fm/setlists/dead-and-company-2bc42076.html","seatingURL":"https://maps.ticketmaster.com/maps/geometry/3/event/0B005C7F874729AF/staticImage?type=png&systemId=HOST","lat":"34.0735795","lng":"-118.2404671","confidence":"1","placesPhotoReference":"","placesID":"","dateString":"11","monthString":"Oct","title":"Mon, Oct 11","YYYYMMDD":"20211011"},{"showID":1,"dateShow":"2022-06-13T19:00:00","dateDoors":"","dateLots":"","timeZone":"America/Los_Angeles","venue":"Shoreline Amphitheatre","altName":"Mountain View","notes":"Capacity: 22,500","address":"One Amphitheatre Pkwy","city":"Mountain View","state":"CA","postal":"94043","country":"USA","phoneNbr":"650-967-4040","venueURL":"https://www.livenation.com/venue/KovZpZA6ta1A/shoreline-amphitheatre-events","setlistURL":"https://www.setlist.fm/setlists/dead-and-company-2bc42076.html","seatingURL":"https://maps.ticketmaster.com/maps/geometry/3/event/1C005C7E6F1D226F/staticImage?type=png&systemId=HOST","lat":"37.4268342","lng":"-122.0807023","confidence":"1","placesPhotoReference":"","placesID":"","dateString":"11","monthString":"Oct","title":"Mon, Oct 11","YYYYMMDD":"20211011"},{"showID":2,"dateShow":"2022-06-14T19:00:00","dateDoors":"","dateLots":"","timeZone":"America/Los_Angeles","venue":"Shoreline Amphitheatre","altName":"Mountain View","notes":"Capacity: 22,500","address":"One Amphitheatre Pkwy","city":"Mountain View","state":"CA","postal":"94043","country":"USA","phoneNbr":"650-967-4040","venueURL":"https://www.livenation.com/venue/KovZpZA6ta1A/shoreline-amphitheatre-events","setlistURL":"https://www.setlist.fm/setlists/dead-and-company-2bc42076.html","seatingURL":"https://maps.ticketmaster.com/maps/geometry/3/event/1C005C7E6F1D226F/staticImage?type=png&systemId=HOST","lat":"37.4268342","lng":"-122.0807023","confidence":"1","placesPhotoReference":"","placesID":"","dateString":"11","monthString":"Oct","title":"Mon, Oct 11","YYYYMMDD":"20211011"},{"showID":3,"dateShow":"2022-06-17T19:00:00","dateDoors":"","dateLots":"","timeZone":"America/Denver","venue":"Folsom Field","altName":"Boulder","notes":"Capacity: 50,183","address":"2400 Colorado Ave","city":"Boulder","state":"CO","postal":"80305","country":"USA","phoneNbr":"","venueURL":"https://cubuffs.com/facilities/folsom-field/1","setlistURL":"https://www.setlist.fm/setlists/dead-and-company-2bc42076.html","seatingURL":"https://s3.amazonaws.com/sidearm.sites/cubuffs.com/documents/2020/2/6/Dead_Co_Pricing_Map_2020.pdf","lat":"40.009472","lng":"-105.2668869","confidence":"1","placesPhotoReference":"","placesID":"","dateString":"11","monthString":"Oct","title":"Mon, Oct 11","YYYYMMDD":"20211011"},{"showID":4,"dateShow":"2022-06-18T19:00:00","dateDoors":"","dateLots":"","timeZone":"America/Denver","venue":"Folsom Field","altName":"Boulder","notes":"Capacity: 50,183","address":"2400 Colorado Ave","city":"Boulder","state":"CO","postal":"80305","country":"USA","phoneNbr":"","venueURL":"https://cubuffs.com/facilities/folsom-field/1","setlistURL":"https://www.setlist.fm/setlists/dead-and-company-2bc42076.html","seatingURL":"https://s3.amazonaws.com/sidearm.sites/cubuffs.com/documents/2020/2/6/Dead_Co_Pricing_Map_2020.pdf","lat":"40.009472","lng":"-105.2668869","confidence":"1","placesPhotoReference":"","placesID":"","dateString":"11","monthString":"Oct","title":"Mon, Oct 11","YYYYMMDD":"20211011"},{"showID":5,"dateShow":"2022-06-21T19:00:00","dateDoors":"","dateLots":"","timeZone":"America/Chicago","venue":"Hollywood Casino Amphitheatre","altName":"Maryland Heights","notes":"Capacity: 20,000","address":"14141 Riverport Dr","city":"Maryland Heights","state":"MO","postal":"63043","country":"USA","phoneNbr":"314-298-9944","venueURL":"https://www.livenation.com/venue/KovZpZAEAnaA/hollywood-casino-amphitheatre-st-louis-mo-events","setlistURL":"https://www.setlist.fm/setlists/dead-and-company-2bc42076.html","seatingURL":"https://maps.ticketmaster.com/maps/geometry/3/event/06005C7D863B2BEF/staticImage?type=png&systemId=HOST","lat":"38.7443756","lng":"-90.4696075","confidence":"1","placesPhotoReference":"","placesID":"","dateString":"11","monthString":"Oct","title":"Mon, Oct 11","YYYYMMDD":"20211011"},{"showID":6,"dateShow":"2022-06-22T19:00:00","dateDoors":"","dateLots":"","timeZone":"America/New_York","venue":"Riverbend Music Center","altName":"Cincinnati","notes":"Capacity: 20,500","address":"6295 Kellogg Ave","city":"Cincinnati","state":"OH","postal":"45230","country":"USA","phoneNbr":"513-232-6220","venueURL":"https://riverbend.org/","setlistURL":"https://www.setlist.fm/setlists/dead-and-company-2bc42076.html","seatingURL":"https://maps.ticketmaster.com/maps/geometry/3/event/16005C7CDEE05FAE/staticImage?type=png&systemId=HOST","lat":"39.0519431","lng":"-84.41889669999999","confidence":"1","placesPhotoReference":"","placesID":"","dateString":"11","monthString":"Oct","title":"Mon, Oct 11","YYYYMMDD":"20211011"},{"showID":7,"dateShow":"2022-06-24T18:30:00","dateDoors":"","dateLots":"","timeZone":"America/Chicago","venue":"Wrigley Field","altName":"Chicago","notes":"","address":"1060 W Addison St","city":"Chicago","state":"IL","postal":"60613","country":"USA","phoneNbr":"773-404-2827","venueURL":"https://www.mlb.com/cubs/ballpark","setlistURL":"https://www.setlist.fm/setlists/dead-and-company-2bc42076.html","seatingURL":"https://content.resale.ticketmaster.com/maps/1905-1-1-main.gif","lat":"41.9484384","lng":"-87.6553327","confidence":"1","placesPhotoReference":"","placesID":"","dateString":"11","monthString":"Oct","title":"Mon, Oct 11","YYYYMMDD":"20211011"},{"showID":8,"dateShow":"2022-06-25T18:30:00","dateDoors":"","dateLots":"","timeZone":"America/Chicago","venue":"Wrigley Field","altName":"Chicago","notes":"","address":"1060 W Addison St","city":"Chicago","state":"IL","postal":"60613","country":"USA","phoneNbr":"773-404-2827","venueURL":"https://www.mlb.com/cubs/ballpark","setlistURL":"https://www.setlist.fm/setlists/dead-and-company-2bc42076.html","seatingURL":"https://content.resale.ticketmaster.com/maps/1905-1-1-main.gif","lat":"41.9484384","lng":"-87.6553327","confidence":"1","placesPhotoReference":"","placesID":"","dateString":"11","monthString":"Oct","title":"Mon, Oct 11","YYYYMMDD":"20211011"},{"showID":9,"dateShow":"2022-06-28T19:00:00","dateDoors":"","dateLots":"","timeZone":"America/Indianapolis","venue":"Ruoff Music Center","altName":"Deer Creek","notes":"Capacity: 24,790","address":"12880 E 146th St","city":"Noblesville","state":"IN","postal":"46060","country":"USA","phoneNbr":"317-776-8181","venueURL":"https://www.livenation.com/venue/KovZpvEk7A/ruoff-music-center-events","setlistURL":"https://www.setlist.fm/setlists/dead-and-company-2bc42076.html","seatingURL":"https://maps.ticketmaster.com/maps/geometry/3/event/05005C7DF0F53F8D/staticImage?type=png&systemId=HOST","lat":"40.0048561","lng":"-85.9308013","confidence":"1","placesPhotoReference":"","placesID":"","dateString":"11","monthString":"Oct","title":"Mon, Oct 11","YYYYMMDD":"20211011"},{"showID":10,"dateShow":"2022-06-29T19:00:00","dateDoors":"","dateLots":"","timeZone":"America/New_York","venue":"Pine Knob Music Theatre","altName":"Clarkston","notes":"Capacity: 15,040","address":"33 Bob Seger Dr","city":"Village of Clarkston","state":"MI","postal":"48348","country":"USA","phoneNbr":"248-377-0100","venueURL":"https://www.livenation.com/venue/KovZpa3swe/pine-knob-music-theatre-events","setlistURL":"https://www.setlist.fm/setlists/dead-and-company-2bc42076.html","seatingURL":"https://maps.ticketmaster.com/maps/geometry/3/event/08005C7FC5ED5D79/staticImage?type=png&systemId=HOST","lat":"42.745146","lng":"-83.3722868","confidence":"0.7","placesPhotoReference":"","placesID":"","dateString":"11","monthString":"Oct","title":"Mon, Oct 11","YYYYMMDD":"20211011"},{"showID":11,"dateShow":"2022-07-01T19:00:00","dateDoors":"","dateLots":"","timeZone":"America/New_York","venue":"Bethel Woods Center for the Arts","altName":"Bethel","notes":"Capacity: 15,000","address":"200 Hurd Rd","city":"Bethel","state":"NY","postal":"12720","country":"USA","phoneNbr":"","venueURL":"https://www.bethelwoodscenter.org/","setlistURL":"https://www.setlist.fm/setlists/dead-and-company-2bc42076.html","seatingURL":"https://maps.ticketmaster.com/maps/geometry/3/event/00005C7EB57953D6/staticImage?type=png&systemId=HOST","lat":"41.6971535","lng":"-74.8776143","confidence":"1","placesPhotoReference":"","placesID":"","dateString":"11","monthString":"Oct","title":"Mon, Oct 11","YYYYMMDD":"20211011"},{"showID":12,"dateShow":"2022-07-0219:00:00","dateDoors":"","dateLots":"","timeZone":"America/New_York","venue":"Gilette Stadium","altName":"Foxborough","notes":"","address":"1 Patriot Pl","city":"Foxborough","state":"MA","postal":"02035","country":"USA","phoneNbr":"508-543-8200","venueURL":"https://www.gillettestadium.com/","setlistURL":"https://www.setlist.fm/setlists/dead-and-company-2bc42076.html","seatingURL":"https://maps.ticketmaster.com/maps/geometry/3/event/01005C7DA17637C4/staticImage?type=png&systemId=HOST","lat":"42.0909458","lng":"-71.2643465","confidence":"1","placesPhotoReference":"","placesID":"","dateString":"11","monthString":"Oct","title":"Mon, Oct 11","YYYYMMDD":"20211011"},{"showID":13,"dateShow":"2022-07-0519:00:00","dateDoors":"","dateLots":"","timeZone":"America/New_York","venue":"XFINITY Theatre","altName":"Hartford","notes":"Capacity: 30,000","address":"61 Savitt Way","city":"Hartford","state":"CT","postal":"06120","country":"USA","phoneNbr":"860-548-7370","venueURL":"https://www.livenation.com/venue/KovZpZAEkFnA/xfinity-theatre-events","setlistURL":"https://www.setlist.fm/setlists/dead-and-company-2bc42076.html","seatingURL":"https://maps.ticketmaster.com/maps/geometry/3/event/1D005C75A0451C54/staticImage?type=png&systemId=HOST","lat":"41.7799034","lng":"-72.6689071","confidence":"1","placesPhotoReference":"","placesID":"","dateString":"11","monthString":"Oct","title":"Mon, Oct 11","YYYYMMDD":"20211011"},{"showID":14,"dateShow":"2022-07-0619:00:00","dateDoors":"","dateLots":"","timeZone":"America/New_York","venue":"Saratoga Performing Arts Center","altName":"Saratoga Springs","notes":"Capacity: 25,100","address":"108 Avenue of the Pines","city":"Saratoga Springs","state":"NY","postal":"12866","country":"USA","phoneNbr":"518-584-9330","venueURL":"https://spac.org/","setlistURL":"https://www.setlist.fm/setlists/dead-and-company-2bc42076.html","seatingURL":"https://maps.ticketmaster.com/maps/geometry/3/event/00005C7DB2F74C83/staticImage?type=png&systemId=HOST","lat":"43.055381","lng":"-73.80593","confidence":"1","placesPhotoReference":"","placesID":"","dateString":"11","monthString":"Oct","title":"Mon, Oct 11","YYYYMMDD":"20211011"},{"showID":15,"dateShow":"2022-07-0819:00:00","dateDoors":"","dateLots":"","timeZone":"America/New_York","venue":"Jiffy Lube Live","altName":"Bristow","notes":"Capacity: 25,262","address":"7800 Cellar Door Dr","city":"Bristow","state":"VA","postal":"20136","country":"USA","phoneNbr":"703-754-6400","venueURL":"https://www.livenation.com/venue/KovZpZAEk6JA/jiffy-lube-live-events","setlistURL":"https://www.setlist.fm/setlists/dead-and-company-2bc42076.html","seatingURL":"https://maps.ticketmaster.com/maps/geometry/3/event/15005C7DD19B4210/staticImage?type=png&systemId=HOST","lat":"38.7858988","lng":"-77.5895951","confidence":"1","placesPhotoReference":"","placesID":"","dateString":"11","monthString":"Oct","title":"Mon, Oct 11","YYYYMMDD":"20211011"},{"showID":16,"dateShow":"2022-07-1019:00:00","dateDoors":"","dateLots":"","timeZone":"America/New_York","venue":"Citizens Bank Park","altName":"Philadelphia","notes":"","address":"1 Citizens Bank Way","city":"Philadelphia","state":"PA","postal":"19148","country":"USA","phoneNbr":"215-463-1000","venueURL":"https://www.mlb.com/phillies/ballpark","setlistURL":"https://www.setlist.fm/setlists/dead-and-company-2bc42076.html","seatingURL":"https://maps.ticketmaster.com/maps/geometry/3/event/02005C7F32B2A962/staticImage?type=png&systemId=HOST","lat":"39.9060572","lng":"-75.1664952","confidence":"1","placesPhotoReference":"","placesID":"","dateString":"11","monthString":"Oct","title":"Mon, Oct 11","YYYYMMDD":"20211011"},{"showID":17,"dateShow":"2022-07-1219:00:00","dateDoors":"","dateLots":"","timeZone":"America/New_York","venue":"The Pavilion at Star Lake","altName":"Burgettstown","notes":"Capacity: 23,000","address":"665 PA-18","city":"Burgettstown","state":"PA","postal":"15021","country":"USA","phoneNbr":"724-947-7400","venueURL":"https://www.livenation.com/venue/KovZpZAEk71A/the-pavilion-at-star-lake-events","setlistURL":"https://www.setlist.fm/setlists/dead-and-company-2bc42076.html","seatingURL":"https://maps.ticketmaster.com/maps/geometry/3/event/16005C7FD53D5C9B/staticImage?type=png&systemId=HOST","lat":"40.4194049","lng":"-80.4341542","confidence":"1","placesPhotoReference":"","placesID":"","dateString":"11","monthString":"Oct","title":"Mon, Oct 11","YYYYMMDD":"20211011"},{"showID":18,"dateShow":"2022-07-1519:30:00","dateDoors":"","dateLots":"","timeZone":"America/New_York","venue":"Citi Field","altName":"Queens","notes":"","address":"41 Seaver Way","city":"Queens","state":"NY","postal":"11368","country":"USA","phoneNbr":"718-507-8499","venueURL":"https://www.mlb.com/mets/ballpark","setlistURL":"https://www.setlist.fm/setlists/dead-and-company-2bc42076.html","seatingURL":"https://maps.ticketmaster.com/maps/geometry/3/event/1D005C7EA41A280F/staticImage?type=png&systemId=HOST","lat":"40.7570877","lng":"-73.8458213","confidence":"1","placesPhotoReference":"","placesID":"","dateString":"11","monthString":"Oct","title":"Mon, Oct 11","YYYYMMDD":"20211011"},{"showID":19,"dateShow":"2022-07-1619:30:00","dateDoors":"","dateLots":"","timeZone":"America/New_York","venue":"Citi Field","altName":"Queens","notes":"","address":"41 Seaver Way","city":"Queens","state":"NY","postal":"11368","country":"USA","phoneNbr":"718-507-8499","venueURL":"https://www.mlb.com/mets/ballpark","setlistURL":"https://www.setlist.fm/setlists/dead-and-company-2bc42076.html","seatingURL":"https://maps.ticketmaster.com/maps/geometry/3/event/1D005C7EA41A280F/staticImage?type=png&systemId=HOST","lat":"40.7570877","lng":"-73.8458213","confidence":"1","placesPhotoReference":"","placesID":"","dateString":"11","monthString":"Oct","title":"Mon, Oct 11","YYYYMMDD":"20211011"}]