[{"showID":200,"dateShow":"2023-05-19T19:30:00","dateDoors":"","dateLots":"","timeZone":"America/Chicago","venue":"The Cynthia Woods Mitchell Pavilion","altName":"The Woodlands","notes":"Capacity: 16,500","address":"2005 Lake Robbins Dr","city":"The Woodlands","state":"TX","postal":"77380","country":"USA","phoneNbr":"281-364-3010","venueURL":"https://www.woodlandscenter.org/","setlistURL":"https://www.antsmarching.org/tour/ViewShow.php?ShowID=5073","seatingURL":"https://maps.ticketmaster.com/maps/geometry/3/event/3A005E228AD915E3/staticImage?type=png&systemId=HOST","lat":"0.0","lng":"0.0","confidence":"0","placesPhotoReference":"","placesID":"","dateString":"19","monthString":"Mar","title":"Sun, Mar 19","YYYYMMDD":"20230319"},{"showID":201,"dateShow":"2023-05-20T19:30:00","dateDoors":"","dateLots":"","timeZone":"America/Chicago","venue":"Dos Equis Pavilion","altName":"Dallas","notes":"Capacity: 20,000","address":"1818 1st Ave","city":"Dallas","state":"TX","postal":"75210","country":"USA","phoneNbr":"214-421-1111","venueURL":"https://www.livenation.com/venue/KovZpZAEAFeA/dos-equis-pavilion-events","setlistURL":"https://www.antsmarching.org/tour/ViewShow.php?ShowID=5075","seatingURL":"https://maps.ticketmaster.com/maps/geometry/3/event/0C005C2CD7CB3669/staticImage?type=png&systemId=HOST","lat":"0.0","lng":"0.0","confidence":"0","placesPhotoReference":"","placesID":"","dateString":"19","monthString":"Mar","title":"Sun, Mar 19","YYYYMMDD":"20230319"},{"showID":202,"dateShow":"2023-05-23T19:30:00","dateDoors":"","dateLots":"","timeZone":"America/Chicago","venue":"Walmart AMP","altName":"Rogers","notes":"Capacity: 9,500","address":"5079 W Northgate Rd","city":"Rogers","state":"AR","postal":"72758","country":"USA","phoneNbr":"","venueURL":"https://waltonartscenter.org/amp/","setlistURL":"https://www.antsmarching.org/tour/ViewShow.php?ShowID=5076","seatingURL":"https://waltonartscenter.org/globalassets/wac/tnew-images/fy21/amp/seatmap_steelydan.jpg","lat":"0.0","lng":"0.0","confidence":"0","placesPhotoReference":"","placesID":"","dateString":"19","monthString":"Mar","title":"Sun, Mar 19","YYYYMMDD":"20230319"},{"showID":204,"dateShow":"2023-05-23T19:30:00","dateDoors":"","dateLots":"","timeZone":"America/Chicago","venue":"Walmart AMP","altName":"Rogers","notes":"Capacity: 9,500","address":"5079 W Northgate Rd","city":"Rogers","state":"AR","postal":"72758","country":"USA","phoneNbr":"","venueURL":"https://waltonartscenter.org/amp/","setlistURL":"https://www.antsmarching.org/tour/ViewShow.php?ShowID=5076","seatingURL":"https://waltonartscenter.org/globalassets/wac/tnew-images/fy21/amp/seatmap_steelydan.jpg","lat":"0.0","lng":"0.0","confidence":"0","placesPhotoReference":"","placesID":"","dateString":"19","monthString":"Mar","title":"Sun, Mar 19","YYYYMMDD":"20230319"},{"showID":205,"dateShow":"2023-05-24T19:30:00","dateDoors":"","dateLots":"","timeZone":"America/Chicago","venue":"BankPlus Amphitheater","altName":"Southaven","notes":"Capacity: 11,000","address":"6285 Snowden Ln","city":"Southaven","state":"MS","postal":"38672","country":"USA","phoneNbr":"662-892-2660","venueURL":"https://visitdesotocounty.com/locations/bankplus-amphitheater-at-snowden-grove-park/","setlistURL":"https://www.antsmarching.org/tour/ViewShow.php?ShowID=5077","seatingURL":"https://maps.ticketmaster.com/maps/geometry/3/event/1B005E25158682FE/staticImage?type=png&systemId=HOST","lat":"0.0","lng":"0.0","confidence":"0","placesPhotoReference":"","placesID":"","dateString":"19","monthString":"Mar","title":"Sun, Mar 19","YYYYMMDD":"20230319"},{"showID":206,"dateShow":"2023-05-26T19:30:00","dateDoors":"","dateLots":"","venue":"Bridgestone Arena","altName":"Nashville","notes":"Capacity: 20,000","address":"501 Broadway","city":"Nashville","state":"TN","postal":"37023","country":"USA","phoneNbr":"","venueURL":"https://www.bridgestonearena.com/","setlistURL":"https://www.antsmarching.org/tour/ViewShow.php?ShowID=5078","seatingURL":"https://maps.ticketmaster.com/maps/geometry/3/event/1B005D7EEE6293AD/staticImage?type=png&systemId=HOST","lat":"0.0","lng":"0.0","confidence":"0","placesPhotoReference":"","placesID":"","dateString":"19","monthString":"Mar","title":"Sun, Mar 19","YYYYMMDD":"20230319"},{"showID":207,"dateShow":"2023-05-27T19:30:00","dateDoors":"","dateLots":"","timeZone":"America/New_York","venue":"Riverbend Music Center","altName":"Cincinnati","notes":"Capacity: 20,500","address":"6295 Kellogg Ave","city":"Cincinnati","state":"OH","postal":"45230","country":"USA","phoneNbr":"","venueURL":"https://www.riverbend.org/","setlistURL":"https://www.antsmarching.org/tour/ViewShow.php?ShowID=5079","seatingURL":"https://maps.ticketmaster.com/maps/geometry/3/event/16005D89C7B64745/staticImage?type=png&systemId=HOST","lat":"0.0","lng":"0.0","confidence":"0","placesPhotoReference":"","placesID":"","dateString":"19","monthString":"Mar","title":"Sun, Mar 19","YYYYMMDD":"20230319"},{"showID":208,"dateShow":"2023-05-30T19:30:00","dateDoors":"","dateLots":"","timeZone":"America/New_York","venue":"Live Oak Bank Pavilion","altName":"Wilmington","notes":"Capacity: 7,200","address":"10 Cowan St","city":"Wilmington","state":"NC","postal":"28401","country":"USA","phoneNbr":"910-343-3614","venueURL":"https://www.livenation.com/venue/KovZ917A0DZ/live-oak-bank-pavilion-events","setlistURL":"https://www.antsmarching.org/tour/ViewShow.php?ShowID=5080","seatingURL":"https://maps.ticketmaster.com/maps/geometry/3/event/2D005D7EDC6D6365/staticImage?type=png&systemId=HOST","lat":"0.0","lng":"0.0","confidence":"0","placesPhotoReference":"","placesID":"","dateString":"19","monthString":"Mar","title":"Sun, Mar 19","YYYYMMDD":"20230319"},{"showID":209,"dateShow":"2023-05-31T19:30:00","dateDoors":"","dateLots":"","timeZone":"America/New_York","venue":"Live Oak Bank Pavilion","altName":"Wilmington","notes":"Capacity: 7,200","address":"10 Cowan St","city":"Wilmington","state":"NC","postal":"28401","country":"USA","phoneNbr":"910-343-3614","venueURL":"https://www.livenation.com/venue/KovZ917A0DZ/live-oak-bank-pavilion-events","setlistURL":"https://www.antsmarching.org/tour/ViewShow.php?ShowID=5081","seatingURL":"https://maps.ticketmaster.com/maps/geometry/3/event/2D005D7EDC6D6365/staticImage?type=png&systemId=HOST","lat":"0.0","lng":"0.0","confidence":"0","placesPhotoReference":"","placesID":"","dateString":"19","monthString":"Mar","title":"Sun, Mar 19","YYYYMMDD":"20230319"},{"showID":210,"dateShow":"2023-06-02T19:30:00","dateDoors":"","dateLots":"","timeZone":"America/New_York","venue":"Credit One Stadium","altName":"Charleston","notes":"Capacity: 10,200","address":"161 Seven Farms Drive","city":"Charleston","state":"SC","postal":"29492","country":"USA","phoneNbr":"","venueURL":"https://creditonestadium.com/","setlistURL":"https://www.antsmarching.org/tour/ViewShow.php?ShowID=5082","seatingURL":"https://maps.ticketmaster.com/maps/geometry/3/event/2D005D7EC6B3584F/staticImage?type=png&systemId=HOST","lat":"0.0","lng":"0.0","confidence":"0","placesPhotoReference":"","placesID":"","dateString":"19","monthString":"Mar","title":"Sun, Mar 19","YYYYMMDD":"20230319"},{"showID":211,"dateShow":"2023-06-03T19:30:00","dateDoors":"","dateLots":"","timeZone":"America/New_York","venue":"Credit One Stadium","altName":"Charleston","notes":"Capacity: 10,200","address":"161 Seven Farms Drive","city":"Charleston","state":"SC","postal":"29492","country":"USA","phoneNbr":"","venueURL":"https://creditonestadium.com/","setlistURL":"https://www.antsmarching.org/tour/ViewShow.php?ShowID=5083","seatingURL":"https://maps.ticketmaster.com/maps/geometry/3/event/2D005D7EC6B3584F/staticImage?type=png&systemId=HOST","lat":"0.0","lng":"0.0","confidence":"0","placesPhotoReference":"","placesID":"","dateString":"19","monthString":"Mar","title":"Sun, Mar 19","YYYYMMDD":"20230319"},{"showID":212,"dateShow":"2023-06-09T19:30:00","dateDoors":"","dateLots":"","timeZone":"America/New_York","venue":"Forest Hils Stadium","altName":"Forest Hills","notes":"","address":"1 Tennis Pl","city":"Forest Hills","state":"NY","postal":"11375","country":"USA","phoneNbr":"888-929-7849","venueURL":"https://creditonestadium.com/","setlistURL":"https://www.antsmarching.org/tour/ViewShow.php?ShowID=5083","seatingURL":"https://content.resale.ticketmaster.com/graphics/TMResale/2/VenueMaps/586-8113-2-0-ForestHillsStadium71524.png","lat":"0.0","lng":"0.0","confidence":"0","placesPhotoReference":"","placesID":"","dateString":"19","monthString":"Mar","title":"Sun, Mar 19","YYYYMMDD":"20230319"},{"showID":213,"dateShow":"2023-06-10T19:30:00","dateDoors":"","dateLots":"","timeZone":"America/New_York","venue":"Forest Hils Stadium","altName":"Forest Hills","notes":"","address":"1 Tennis Pl","city":"Forest Hills","state":"NY","postal":"11375","country":"USA","phoneNbr":"888-929-7849","venueURL":"https://creditonestadium.com/","setlistURL":"https://www.antsmarching.org/tour/ViewShow.php?ShowID=5084","seatingURL":"https://content.resale.ticketmaster.com/graphics/TMResale/2/VenueMaps/586-8113-2-0-ForestHillsStadium71524.png","lat":"0.0","lng":"0.0","confidence":"0","placesPhotoReference":"","placesID":"","dateString":"19","monthString":"Mar","title":"Sun, Mar 19","YYYYMMDD":"20230319"},{"showID":214,"dateShow":"2023-06-11T19:30:00","dateDoors":"","dateLots":"","timeZone":"America/New_York","venue":"Xfinity Theatre","altName":"Hartford","notes":"Capacity: 30,000","address":"61 Savitt Way","city":"Hartford","state":"CT","postal":"06120","country":"USA","phoneNbr":"860-548-7370","venueURL":"https://www.livenation.com/venue/KovZpZAEkFnA/xfinity-theatre-events?utm_source=GMBlisting&utm_medium=organic","setlistURL":"https://www.antsmarching.org/tour/ViewShow.php?ShowID=5085","seatingURL":"https://maps.ticketmaster.com/maps/geometry/3/event/1D005D8CBCCC354D/staticImage?type=png&systemId=HOST","lat":"0.0","lng":"0.0","confidence":"0","placesPhotoReference":"","placesID":"","dateString":"19","monthString":"Mar","title":"Sun, Mar 19","YYYYMMDD":"20230319"},{"showID":215,"dateShow":"2023-06-14T19:30:00","dateDoors":"","dateLots":"","timeZone":"America/New_York","venue":"Darien Lake Amphitheater","altName":"Darien Lake","notes":"","address":"9993 Alleghany Rd","city":"Darien Center","state":"NY","postal":"14040","country":"USA","phoneNbr":"585-599-5040","venueURL":"https://www.livenation.com/venue/KovZpaF0ne/darien-lake-amphitheater-events?utm_source=GMBlisting&utm_medium=organic","setlistURL":"https://www.antsmarching.org/tour/ViewShow.php?ShowID=5086","seatingURL":"https://maps.ticketmaster.com/maps/geometry/3/event/00005E23C405411C/staticImage?type=png&systemId=HOST","lat":"0.0","lng":"0.0","confidence":"0","placesPhotoReference":"","placesID":"","dateString":"19","monthString":"Mar","title":"Sun, Mar 19","YYYYMMDD":"20230319"},{"showID":216,"dateShow":"2023-06-16T19:30:00","dateDoors":"","dateLots":"","timeZone":"America/New_York","venue":"Maine Savings Amphitheatre","altName":"Bangor","notes":"","address":"1 Railroad St","city":"Bangor","state":"ME","postal":"04401","country":"USA","phoneNbr":"207-358-9327","venueURL":"https://www.waterfrontconcerts.com/venue/maine-savings-amphitheater","setlistURL":"https://www.antsmarching.org/tour/ViewShow.php?ShowID=5087","seatingURL":"https://maps.ticketmaster.com/maps/geometry/3/event/01005E23A8A836F8/staticImage?type=png&systemId=HOST","lat":"0.0","lng":"0.0","confidence":"0","placesPhotoReference":"","placesID":"","dateString":"19","monthString":"Mar","title":"Sun, Mar 19","YYYYMMDD":"20230319"},{"showID":217,"dateShow":"2023-06-17T19:30:00","dateDoors":"","dateLots":"","timeZone":"America/New_York","venue":"Xfinity Center","altName":"Great Woods","notes":"Capacity: 19,900","address":"885 S Main St","city":"Mansfield","state":"MA","postal":"02048","country":"USA","phoneNbr":"742-856-7900","venueURL":"https://www.livenation.com/venue/KovZpZAEAElA/xfinity-center-events","setlistURL":"https://www.antsmarching.org/tour/ViewShow.php?ShowID=5088","seatingURL":"https://maps.ticketmaster.com/maps/geometry/3/event/01005E29C1A240C8/staticImage?type=png&systemId=HOST","lat":"0.0","lng":"0.0","confidence":"0","placesPhotoReference":"","placesID":"","dateString":"19","monthString":"Mar","title":"Sun, Mar 19","YYYYMMDD":"20230319"},{"showID":218,"dateShow":"2023-06-23T19:30:00","dateDoors":"","dateLots":"","timeZone":"America/New_York","venue":"The Pavilion at Star Lake","altName":"Burgettstown","notes":"Capacity: 23,000","address":"665 PA-18","city":"Burgettstown","state":"PA","postal":"15021","country":"USA","phoneNbr":"724-947-7400","venueURL":"https://www.livenation.com/venue/KovZpZAEk71A/the-pavilion-at-star-lake-events","setlistURL":"https://www.antsmarching.org/tour/ViewShow.php?ShowID=5089","seatingURL":"https://maps.ticketmaster.com/maps/geometry/3/event/16005E34D00C5C16/staticImage?type=png&systemId=HOST","lat":"0.0","lng":"0.0","confidence":"0","placesPhotoReference":"","placesID":"","dateString":"19","monthString":"Mar","title":"Sun, Mar 19","YYYYMMDD":"20230319"},{"showID":219,"dateShow":"2023-06-24T19:30:00","dateDoors":"","dateLots":"","timeZone":"America/New_York","venue":"Merriweather Post Pavilion","altName":"Columbia","notes":"Capacity: 19,319","address":"10475 Little Patuxent Pkwy","city":"Columbia","state":"MD","postal":"21044","country":"USA","phoneNbr":"","venueURL":"https://merriweathermusic.com/","setlistURL":"https://www.antsmarching.org/tour/ViewShow.php?ShowID=5090","seatingURL":"https://maps.ticketmaster.com/maps/geometry/3/event/15005E2AE92C3C33/staticImage?type=png&systemId=HOST","lat":"0.0","lng":"0.0","confidence":"0","placesPhotoReference":"","placesID":"","dateString":"19","monthString":"Mar","title":"Sun, Mar 19","YYYYMMDD":"20230319"},{"showID":220,"dateShow":"2023-06-27T19:30:00","dateDoors":"","dateLots":"","venue":"Pine Knob Music Theatre","altName":"Clarkston","notes":"Capacity: 15,040","address":"33 Bob Seger Dr","city":"Village of Clarkston","state":"MI","postal":"48348","country":"USA","phoneNbr":"313-471-7000","venueURL":"https://www.313presents.com/venue/pine-knob-music-theatre","setlistURL":"https://www.antsmarching.org/tour/ViewShow.php?ShowID=5091","seatingURL":"https://maps.ticketmaster.com/maps/geometry/3/event/08005E25EE99403D/staticImage?type=png&systemId=HOST","lat":"0.0","lng":"0.0","confidence":"0","placesPhotoReference":"","placesID":"","dateString":"19","monthString":"Mar","title":"Sun, Mar 19","YYYYMMDD":"20230319"},{"showID":221,"dateShow":"2023-06-29T19:30:00","dateDoors":"","dateLots":"","timeZone":"America/Chicago","venue":"American Family Insurance Amphitheater","altName":"Milwaukee","notes":"Capacity: 23,000","address":"639 E Summerfest Pl","city":"Milwaukee","state":"WI","postal":"53202","country":"USA","phoneNbr":"","venueURL":"https://www.summerfest.com/","setlistURL":"https://www.antsmarching.org/tour/ViewShow.php?ShowID=5092","seatingURL":"https://maps.ticketmaster.com/maps/geometry/3/event/07005E25DAA52C85/staticImage?type=png&systemId=HOST","lat":"0.0","lng":"0.0","confidence":"0","placesPhotoReference":"","placesID":"","dateString":"19","monthString":"Mar","title":"Sun, Mar 19","YYYYMMDD":"20230319"},{"showID":222,"dateShow":"2023-06-30T19:30:00","dateDoors":"","dateLots":"","timeZone":"America/Indianapolis","venue":"Ruoff Music Center","altName":"Deer Creek","notes":"Capacity: 24,790","address":"12880 E 146th St","city":"Noblesville","state":"IN","postal":"46060","country":"USA","phoneNbr":"","venueURL":"https://www.ruoff.com/musiccenter","setlistURL":"https://www.antsmarching.org/tour/ViewShow.php?ShowID=5093","seatingURL":"https://maps.ticketmaster.com/maps/geometry/3/event/05005E34B8EC4D45/staticImage?type=png&systemId=HOST","lat":"0.0","lng":"0.0","confidence":"0","placesPhotoReference":"","placesID":"","dateString":"19","monthString":"Mar","title":"Sun, Mar 19","YYYYMMDD":"20230319"},{"showID":222,"dateShow":"2023-07-01T19:30:00","dateDoors":"","dateLots":"","timeZone":"America/Indianapolis","venue":"Ruoff Music Center","altName":"Deer Creek","notes":"Capacity: 24,790","address":"12880 E 146th St","city":"Noblesville","state":"IN","postal":"46060","country":"USA","phoneNbr":"","venueURL":"https://www.ruoff.com/musiccenter","setlistURL":"https://www.antsmarching.org/tour/ViewShow.php?ShowID=5094","seatingURL":"https://maps.ticketmaster.com/maps/geometry/3/event/05005E34B8EC4D45/staticImage?type=png&systemId=HOST","lat":"0.0","lng":"0.0","confidence":"0","placesPhotoReference":"","placesID":"","dateString":"19","monthString":"Mar","title":"Sun, Mar 19","YYYYMMDD":"20230319"},{"showID":223,"dateShow":"2023-07-07T19:30:00","dateDoors":"","dateLots":"","timeZone":"America/Chicago","venue":"Huntington Bank Pavilion","altName":"Chicago","notes":"Capacity: 30,000","address":"1300 S Linn White Dr","city":"Chicago","state":"IL","postal":"60605","country":"USA","phoneNbr":"","venueURL":"http://www.pavilionnortherlyisland.com/","setlistURL":"https://www.antsmarching.org/tour/ViewShow.php?ShowID=5095","seatingURL":"https://maps.ticketmaster.com/maps/geometry/3/event/04005E3511AE4FA7/staticImage?type=png&systemId=HOST","lat":"0.0","lng":"0.0","confidence":"0","placesPhotoReference":"","placesID":"","dateString":"19","monthString":"Mar","title":"Sun, Mar 19","YYYYMMDD":"20230319"},{"showID":223,"dateShow":"2023-07-08T19:30:00","dateDoors":"","dateLots":"","timeZone":"America/Chicago","venue":"Huntington Bank Pavilion","altName":"Chicago","notes":"Capacity: 30,000","address":"1300 S Linn White Dr","city":"Chicago","state":"IL","postal":"60605","country":"USA","phoneNbr":"","venueURL":"http://www.pavilionnortherlyisland.com/","setlistURL":"https://www.antsmarching.org/tour/ViewShow.php?ShowID=5096","seatingURL":"https://maps.ticketmaster.com/maps/geometry/3/event/04005E3511AE4FA7/staticImage?type=png&systemId=HOST","lat":"0.0","lng":"0.0","confidence":"0","placesPhotoReference":"","placesID":"","dateString":"19","monthString":"Mar","title":"Sun, Mar 19","YYYYMMDD":"20230319"},{"showID":223,"dateShow":"2023-07-11T19:30:00","dateDoors":"","dateLots":"","timeZone":"America/New_York","venue":"Bank of NH Pavilion","altName":"Gilford","notes":"Capacity: 9,000","address":"72 Meadowbrook Ln","city":"Gilford","state":"NH","postal":"03249","country":"USA","phoneNbr":"","venueURL":"https://www.banknhpavilion.com/","setlistURL":"https://www.antsmarching.org/tour/ViewShow.php?ShowID=5097","seatingURL":"https://maps.ticketmaster.com/maps/geometry/3/event/01005E34C2A955EC/staticImage?type=png&systemId=HOST","lat":"0.0","lng":"0.0","confidence":"0","placesPhotoReference":"","placesID":"","dateString":"19","monthString":"Mar","title":"Sun, Mar 19","YYYYMMDD":"20230319"},{"showID":224,"dateShow":"2023-07-12T19:30:00","dateDoors":"","dateLots":"","timeZone":"America/New_York","venue":"Bank of NH Pavilion","altName":"Gilford","notes":"Capacity: 9,000","address":"72 Meadowbrook Ln","city":"Gilford","state":"NH","postal":"03249","country":"USA","phoneNbr":"","venueURL":"https://www.banknhpavilion.com/","setlistURL":"https://www.antsmarching.org/tour/ViewShow.php?ShowID=5098","seatingURL":"https://maps.ticketmaster.com/maps/geometry/3/event/01005E34C2A955EC/staticImage?type=png&systemId=HOST","lat":"0.0","lng":"0.0","confidence":"0","placesPhotoReference":"","placesID":"","dateString":"19","monthString":"Mar","title":"Sun, Mar 19","YYYYMMDD":"20230319"},{"showID":225,"dateShow":"2023-07-14T19:30:00","dateDoors":"","dateLots":"","timeZone":"America/New_York","venue":"Saratoga Performing Arts Center","altName":"Saratoga Springs","notes":"Capacity: 25,100","address":"108 Avenue of the Pines","city":"Saratoga Springs","state":"NY","postal":"12866","country":"USA","phoneNbr":"518-584-9330","venueURL":"https://spac.org/","setlistURL":"https://www.antsmarching.org/tour/ViewShow.php?ShowID=5099","seatingURL":"https://maps.ticketmaster.com/maps/geometry/3/event/00005D8CC16DA8BF/staticImage?type=png&systemId=HOST","lat":"0.0","lng":"0.0","confidence":"0","placesPhotoReference":"","placesID":"","dateString":"19","monthString":"Mar","title":"Sun, Mar 19","YYYYMMDD":"20230319"},{"showID":226,"dateShow":"2023-07-15T19:30:00","dateDoors":"","dateLots":"","timeZone":"America/New_York","venue":"Saratoga Performing Arts Center","altName":"Saratoga Springs","notes":"Capacity: 25,100","address":"108 Avenue of the Pines","city":"Saratoga Springs","state":"NY","postal":"12866","country":"USA","phoneNbr":"518-584-9330","venueURL":"https://spac.org/","setlistURL":"https://www.antsmarching.org/tour/ViewShow.php?ShowID=5100","seatingURL":"https://maps.ticketmaster.com/maps/geometry/3/event/00005D8CC16DA8BF/staticImage?type=png&systemId=HOST","lat":"0.0","lng":"0.0","confidence":"0","placesPhotoReference":"","placesID":"","dateString":"19","monthString":"Mar","title":"Sun, Mar 19","YYYYMMDD":"20230319"},{"showID":227,"dateShow":"2023-07-18T19:30:00","dateDoors":"","dateLots":"","timeZone":"America/New_York","venue":"PNC Bank Arts Center","altName":"Holmdel","notes":"Capacity: 17,500","address":"116 Garden State Pkwy","city":"Holmdel","state":"NJ","postal":"07733","country":"USA","phoneNbr":"732-203-2500","venueURL":"https://www.livenation.com/venue/KovZpZAEAIIA/pnc-bank-arts-center-events","setlistURL":"https://www.antsmarching.org/tour/ViewShow.php?ShowID=5101","seatingURL":"https://maps.ticketmaster.com/maps/geometry/3/event/02005D8CC89F5F66/staticImage?type=png&systemId=HOST","lat":"0.0","lng":"0.0","confidence":"0","placesPhotoReference":"","placesID":"","dateString":"19","monthString":"Mar","title":"Sun, Mar 19","YYYYMMDD":"20230319"},{"showID":228,"dateShow":"2023-07-19T19:30:00","dateDoors":"","dateLots":"","timeZone":"America/New_York","venue":"Jones Beach Theater","altName":"Jones Beach","notes":"Capacity: 15,000","address":"895 Bay Pkwy","city":"Wantaugh","state":"NY","postal":"11793","country":"USA","phoneNbr":"","venueURL":"https://www.livenation.com/venue/KovZpZAE6eAA/northwell-health-at-jones-beach-theater-events","setlistURL":"https://www.antsmarching.org/tour/ViewShow.php?ShowID=5102","seatingURL":"https://maps.ticketmaster.com/maps/geometry/3/event/1D005E26D96E358A/staticImage?type=png&systemId=HOST","lat":"0.0","lng":"0.0","confidence":"0","placesPhotoReference":"","placesID":"","dateString":"19","monthString":"Mar","title":"Sun, Mar 19","YYYYMMDD":"20230319"},{"showID":229,"dateShow":"2023-07-21T19:30:00","dateDoors":"","dateLots":"","timeZone":"America/New_York","venue":"Freedom Mortgage Pavilion","altName":"Camden","notes":"Capacity: 25,000","address":"1 Harbour Blvd","city":"Camden","state":"NJ","postal":"08103","country":"USA","phoneNbr":"856-365-1300","venueURL":"https://www.waterfrontamphitheater.com/","setlistURL":"https://www.antsmarching.org/tour/ViewShow.php?ShowID=5103","seatingURL":"https://maps.ticketmaster.com/maps/geometry/3/event/02005E32ABCB353A/staticImage?type=png&systemId=HOST","lat":"0.0","lng":"0.0","confidence":"0","placesPhotoReference":"","placesID":"","dateString":"19","monthString":"Mar","title":"Sun, Mar 19","YYYYMMDD":"20230319"},{"showID":230,"dateShow":"2023-07-22T19:30:00","dateDoors":"","dateLots":"","timeZone":"America/New_York","venue":"Freedom Mortgage Pavilion","altName":"Camden","notes":"Capacity: 25,000","address":"1 Harbour Blvd","city":"Camden","state":"NJ","postal":"08103","country":"USA","phoneNbr":"856-365-1300","venueURL":"https://www.waterfrontamphitheater.com/","setlistURL":"https://www.antsmarching.org/tour/ViewShow.php?ShowID=5104","seatingURL":"https://maps.ticketmaster.com/maps/geometry/3/event/02005E32ABCB353A/staticImage?type=png&systemId=HOST","lat":"0.0","lng":"0.0","confidence":"0","placesPhotoReference":"","placesID":"","dateString":"19","monthString":"Mar","title":"Sun, Mar 19","YYYYMMDD":"20230319"},{"showID":231,"dateShow":"2023-07-25T19:30:00","dateDoors":"","dateLots":"","timeZone":"America/New_York","venue":"Ameris Bank Amphitheatre","altName":"Alpharetta","notes":"Capacity: 12,000","address":"2200 Encore Pkwy","city":"Alpharetta","state":"GA","postal":"30009","country":"USA","phoneNbr":"256-964-9556","venueURL":"https://www.livenation.com/venue/KovZpZAFFdlA/ameris-bank-amphitheatre-events","setlistURL":"https://www.antsmarching.org/tour/ViewShow.php?ShowID=5105","seatingURL":"https://maps.ticketmaster.com/maps/geometry/3/event/0E005E25E2BA30CC/staticImage?type=png&systemId=HOST","lat":"0.0","lng":"0.0","confidence":"0","placesPhotoReference":"","placesID":"","dateString":"19","monthString":"Mar","title":"Sun, Mar 19","YYYYMMDD":"20230319"},{"showID":232,"dateShow":"2023-07-26T19:30:00","dateDoors":"","dateLots":"","timeZone":"America/New_York","venue":"The Wharf Amphitheater","altName":"Orange Beach","notes":"Capacity: 10,000","address":"23101 Canal Rd","city":"Orange Beach","state":"AL","postal":"36561","country":"USA","phoneNbr":"251-224-1020","venueURL":"https://alwharf.com/amphitheater","setlistURL":"https://www.antsmarching.org/tour/ViewShow.php?ShowID=5106","seatingURL":"https://maps.ticketmaster.com/maps/geometry/3/event/0E005E25E2BA30CC/staticImage?type=png&systemId=HOST","lat":"0.0","lng":"0.0","confidence":"0","placesPhotoReference":"","placesID":"","dateString":"19","monthString":"Mar","title":"Sun, Mar 19","YYYYMMDD":"20230319"},{"showID":233,"dateShow":"2023-07-28T19:30:00","dateDoors":"","dateLots":"","timeZone":"America/New_York","venue":"iTHINK Financial Amphitheatre","altName":"West Palm Beach","notes":"Capacity: 20,000","address":"601-7 Sansburys Way","city":"West Palm Beach","state":"FL","postal":"33411","country":"USA","phoneNbr":"561-795-8883","venueURL":"https://www.livenation.com/venue/KovZpZAEkvEA/ithink-financial-amphitheatre-events","setlistURL":"https://www.antsmarching.org/tour/ViewShow.php?ShowID=5107","seatingURL":"https://maps.ticketmaster.com/maps/geometry/3/event/0E005E25E2BA30CC/staticImage?type=png&systemId=HOST","lat":"0.0","lng":"0.0","confidence":"0","placesPhotoReference":"","placesID":"","dateString":"19","monthString":"Mar","title":"Sun, Mar 19","YYYYMMDD":"20230319"},{"showID":235,"dateShow":"2023-07-29T19:30:00","dateDoors":"","dateLots":"","timeZone":"America/New_York","venue":"iTHINK Financial Amphitheatre","altName":"West Palm Beach","notes":"Capacity: 20,000","address":"601-7 Sansburys Way","city":"West Palm Beach","state":"FL","postal":"33411","country":"USA","phoneNbr":"561-795-8883","venueURL":"https://www.livenation.com/venue/KovZpZAEkvEA/ithink-financial-amphitheatre-events","setlistURL":"https://www.antsmarching.org/tour/ViewShow.php?ShowID=5108","seatingURL":"https://maps.ticketmaster.com/maps/geometry/3/event/0E005E25E2BA30CC/staticImage?type=png&systemId=HOST","lat":"0.0","lng":"0.0","confidence":"0","placesPhotoReference":"","placesID":"","dateString":"19","monthString":"Mar","title":"Sun, Mar 19","YYYYMMDD":"20230319"},{"showID":236,"dateShow":"2023-08-24T19:30:00","dateDoors":"","dateLots":"","timeZone":"America/Los_Angeles","venue":"Yaamava' Theater","altName":"Highland","notes":"","address":"777 San Manueal Blvd S","city":"Higland","state":"CA","postal":"92346","country":"USA","phoneNbr":"833-987-4697","venueURL":"https://www.livenation.com/venue/KovZpZAEkvEA/ithink-financial-amphitheatre-events","setlistURL":"https://www.antsmarching.org/tour/ViewShow.php?ShowID=5109","seatingURL":"https://content.resale.ticketmaster.com/maps/4071-1-1-main.gif","lat":"0.0","lng":"0.0","confidence":"0","placesPhotoReference":"","placesID":"","dateString":"19","monthString":"Mar","title":"Sun, Mar 19","YYYYMMDD":"20230319"},{"showID":237,"dateShow":"2023-08-25T19:30:00","dateDoors":"","dateLots":"","timeZone":"America/Los_Angeles","venue":"FivePoint Amphitheatre","altName":"Irvine","notes":"","address":"14800 Chinon","city":"Irvine","state":"CA","postal":"92618","country":"USA","phoneNbr":"","venueURL":"https://www.fivepoint.com/elements/arts-and-entertainment","setlistURL":"https://www.antsmarching.org/tour/ViewShow.php?ShowID=5110","seatingURL":"https://maps.ticketmaster.com/maps/geometry/3/event/09005E26A73340D9/staticImage?type=png&systemId=HOST","lat":"0.0","lng":"0.0","confidence":"0","placesPhotoReference":"","placesID":"","dateString":"19","monthString":"Mar","title":"Sun, Mar 19","YYYYMMDD":"20230319"},{"showID":238,"dateShow":"2023-08-26T19:30:00","dateDoors":"","dateLots":"","timeZone":"America/Los_Angeles","venue":"FivePoint Amphitheatre","altName":"Irvine","notes":"","address":"14800 Chinon","city":"Irvine","state":"CA","postal":"92618","country":"USA","phoneNbr":"","venueURL":"https://www.fivepoint.com/elements/arts-and-entertainment","setlistURL":"https://www.antsmarching.org/tour/ViewShow.php?ShowID=5111","seatingURL":"https://maps.ticketmaster.com/maps/geometry/3/event/09005E26A73340D9/staticImage?type=png&systemId=HOST","lat":"0.0","lng":"0.0","confidence":"0","placesPhotoReference":"","placesID":"","dateString":"19","monthString":"Mar","title":"Sun, Mar 19","YYYYMMDD":"20230319"},{"showID":239,"dateShow":"2023-08-29T19:30:00","dateDoors":"","dateLots":"","timeZone":"America/Los_Angeles","venue":"Hayden Homes Amphitheatre","altName":"Bend","notes":"Capacity: 8,000","address":"344 SW Shevlin Hixon Dr","city":"Bend","state":"OR","postal":"97702","country":"USA","phoneNbr":"","venueURL":"https://www.livenation.com/venue/KovZpZA1vlIA/hayden-homes-amphitheater-events","setlistURL":"https://www.antsmarching.org/tour/ViewShow.php?ShowID=5112","seatingURL":"https://maps.ticketmaster.com/maps/geometry/3/event/0F005D8DA5481913/staticImage?type=png&systemId=HOST","lat":"0.0","lng":"0.0","confidence":"0","placesPhotoReference":"","placesID":"","dateString":"19","monthString":"Mar","title":"Sun, Mar 19","YYYYMMDD":"20230319"},{"showID":240,"dateShow":"2023-09-01T19:30:00","dateDoors":"","dateLots":"","timeZone":"America/Los_Angeles","venue":"Gorge Amphitheatre","altName":"The Gorge","notes":"Capacity: 27,500","address":"754 Silica Rd NW","city":"George","state":"WA","postal":"98848","country":"USA","phoneNbr":"","venueURL":"https://www.livenation.com/venue/KovZpZAEkk1A/gorge-amphitheatre-events","setlistURL":"https://www.antsmarching.org/tour/ViewShow.php?ShowID=5113","seatingURL":"https://maps.ticketmaster.com/maps/geometry/3/event/0F005E37A0AD2009/staticImage?type=png&systemId=HOST","lat":"0.0","lng":"0.0","confidence":"0","placesPhotoReference":"","placesID":"","dateString":"19","monthString":"Mar","title":"Sun, Mar 19","YYYYMMDD":"20230319"},{"showID":241,"dateShow":"2023-09-02T19:30:00","dateDoors":"","dateLots":"","timeZone":"America/Los_Angeles","venue":"Gorge Amphitheatre","altName":"The Gorge","notes":"Capacity: 27,500","address":"754 Silica Rd NW","city":"George","state":"WA","postal":"98848","country":"USA","phoneNbr":"","venueURL":"https://www.livenation.com/venue/KovZpZAEkk1A/gorge-amphitheatre-events","setlistURL":"https://www.antsmarching.org/tour/ViewShow.php?ShowID=5114","seatingURL":"https://maps.ticketmaster.com/maps/geometry/3/event/0F005E37A0AD2009/staticImage?type=png&systemId=HOST","lat":"0.0","lng":"0.0","confidence":"0","placesPhotoReference":"","placesID":"","dateString":"19","monthString":"Mar","title":"Sun, Mar 19","YYYYMMDD":"20230319"},{"showID":242,"dateShow":"2023-09-03T19:30:00","dateDoors":"","dateLots":"","timeZone":"America/Los_Angeles","venue":"Gorge Amphitheatre","altName":"The Gorge","notes":"Capacity: 27,500","address":"754 Silica Rd NW","city":"George","state":"WA","postal":"98848","country":"USA","phoneNbr":"","venueURL":"https://www.livenation.com/venue/KovZpZAEkk1A/gorge-amphitheatre-events","setlistURL":"https://www.antsmarching.org/tour/ViewShow.php?ShowID=5115","seatingURL":"https://maps.ticketmaster.com/maps/geometry/3/event/0F005E37A0AD2009/staticImage?type=png&systemId=HOST","lat":"0.0","lng":"0.0","confidence":"0","placesPhotoReference":"","placesID":"","dateString":"19","monthString":"Mar","title":"Sun, Mar 19","YYYYMMDD":"20230319"}]