[{"showID":0,"dateShow":"2023-08-31T19:30:00","dateDoors":"","dateLots":"","timeZone":"America/Chicago","venue":"Xcel Energy Center","altName":"St. Paul","notes":"Capacity: 20,554","address":"199 Kellogg Blvd","city":"St Paul","state":"MN","postal":"55102","country":"USA","phoneNbr":"651-726-8200","venueURL":"https://www.xcelenergycenter.com/","setlistURL":"https://www.livefootsteps.org/shows/","seatingURL":"https://maps.ticketmaster.com/maps/geometry/3/event/06005E868A6E204B/staticImage?type=png&systemId=HOST","lat":"44.9448133","lng":"-93.10111739999999","confidence":"1","placesPhotoReference":"","placesID":"","dateString":"3","monthString":"May","title":"Tue, May 3","YYYYMMDD":"20220503"},{"showID":1,"dateShow":"2023-09-02T19:30:00","dateDoors":"","dateLots":"","timeZone":"America/Chicago","venue":"Xcel Energy Center","altName":"St. Paul","notes":"Capacity: 20,554","address":"199 Kellogg Blvd","city":"St Paul","state":"MN","postal":"55102","country":"USA","phoneNbr":"651-726-8200","venueURL":"https://www.xcelenergycenter.com/","setlistURL":"https://www.livefootsteps.org/shows/","seatingURL":"https://maps.ticketmaster.com/maps/geometry/3/event/06005E868A6E204B/staticImage?type=png&systemId=HOST","lat":"44.9448133","lng":"-93.10111739999999","confidence":"1","placesPhotoReference":"","placesID":"","dateString":"3","monthString":"May","title":"Tue, May 3","YYYYMMDD":"20220503"},{"showID":2,"dateShow":"2023-09-05T19:30:00","dateDoors":"","dateLots":"","timeZone":"America/Chicago","venue":"United Center","altName":"Chicago","notes":"Capacity: 23,500","address":"1901 W Madison","city":"Chicago","state":"IL","postal":"60612","country":"USA","phoneNbr":"","venueURL":"https://www.unitedcenter.com/","setlistURL":"https://www.livefootsteps.org/shows/","seatingURL":"https://maps.ticketmaster.com/maps/geometry/3/event/04005E7DE6942CFE/staticImage?type=png&systemId=HOST","lat":"41.8806908","lng":"-87.6741759","confidence":"1","placesPhotoReference":"","placesID":"","dateString":"3","monthString":"May","title":"Tue, May 3","YYYYMMDD":"20220503"},{"showID":3,"dateShow":"2023-09-07T19:30:00","dateDoors":"","dateLots":"","timeZone":"America/Chicago","venue":"United Center","altName":"Chicago","notes":"Capacity: 23,500","address":"1901 W Madison","city":"Chicago","state":"IL","postal":"60612","country":"USA","phoneNbr":"","venueURL":"https://www.unitedcenter.com/","setlistURL":"https://www.livefootsteps.org/shows/","seatingURL":"https://maps.ticketmaster.com/maps/geometry/3/event/04005E7DE6942CFE/staticImage?type=png&systemId=HOST","lat":"41.8806908","lng":"-87.6741759","confidence":"1","placesPhotoReference":"","placesID":"","dateString":"3","monthString":"May","title":"Tue, May 3","YYYYMMDD":"20220503"},{"showID":4,"dateShow":"2023-09-10T19:30:00","dateDoors":"","dateLots":"","timeZone":"America/Indianapolis","venue":"Ruoff Music Center","altName":"Deer Creek","notes":"Capacity: 24,790","address":"12880 E 146th St","city":"Noblesville","state":"IN","postal":"46060","country":"USA","phoneNbr":"","venueURL":"https://www.ruoff.com/musiccenter","setlistURL":"https://www.livefootsteps.org/shows/","seatingURL":"https://maps.ticketmaster.com/maps/geometry/3/event/04005E7DE6942CFE/staticImage?type=png&systemId=HOST","lat":"40.0048561","lng":"-85.9308013","confidence":"1","placesPhotoReference":"","placesID":"","dateString":"3","monthString":"May","title":"Tue, May 3","YYYYMMDD":"20220503"},{"showID":5,"dateShow":"2023-09-13T19:30:00","dateDoors":"","dateLots":"","timeZone":"America/Chicago","venue":"Dickies Arena","altName":"For Worth","notes":"Capacity: 14,000","address":"1911 Montgomery St","city":"Fort Worth","state":"TX","postal":"76107","country":"USA","phoneNbr":"817-402-9000","venueURL":"https://dickiesarena.com/","setlistURL":"https://www.livefootsteps.org/shows/","seatingURL":"https://maps.ticketmaster.com/maps/geometry/3/event/0C005E8A317D4A1F/staticImage?type=png&systemId=HOST","lat":"32.7410208","lng":"-97.36895659999999","confidence":"1","placesPhotoReference":"","placesID":"","dateString":"3","monthString":"May","title":"Tue, May 3","YYYYMMDD":"20220503"},{"showID":6,"dateShow":"2023-09-15T19:30:00","dateDoors":"","dateLots":"","timeZone":"America/Chicago","venue":"Dickies Arena","altName":"For Worth","notes":"Capacity: 14,000","address":"1911 Montgomery St","city":"Fort Worth","state":"TX","postal":"76107","country":"USA","phoneNbr":"817-402-9000","venueURL":"https://dickiesarena.com/","setlistURL":"https://www.livefootsteps.org/shows/","seatingURL":"https://maps.ticketmaster.com/maps/geometry/3/event/0C005E8A317D4A1F/staticImage?type=png&systemId=HOST","lat":"32.7410208","lng":"-97.36895659999999","confidence":"1","placesPhotoReference":"","placesID":"","dateString":"3","monthString":"May","title":"Tue, May 3","YYYYMMDD":"20220503"},{"showID":7,"dateShow":"2023-09-18T19:30:00","dateDoors":"","dateLots":"","timeZone":"America/Chicago","venue":"Moody Center ATX","altName":"Austin","notes":"Capacity: 15,000","address":"2001 Robert Dedman Dr","city":"Austin","state":"TX","postal":"78712","country":"USA","phoneNbr":"512-651-7600","venueURL":"https://moodycenteratx.com/","setlistURL":"https://www.livefootsteps.org/shows/","seatingURL":"https://maps.ticketmaster.com/maps/geometry/3/event/3A005E8E4E0CA0DE/staticImage?type=png&systemId=HOST","lat":"30.2809699","lng":"-97.7306618","confidence":"1","placesPhotoReference":"","placesID":"","dateString":"3","monthString":"May","title":"Tue, May 3","YYYYMMDD":"20220503"},{"showID":8,"dateShow":"2023-09-19T19:30:00","dateDoors":"","dateLots":"","timeZone":"America/Chicago","venue":"Moody Center ATX","altName":"Austin","notes":"Capacity: 15,000","address":"2001 Robert Dedman Dr","city":"Austin","state":"TX","postal":"78712","country":"USA","phoneNbr":"512-651-7600","venueURL":"https://moodycenteratx.com/","setlistURL":"https://www.livefootsteps.org/shows/","seatingURL":"https://maps.ticketmaster.com/maps/geometry/3/event/3A005E8E4E0CA0DE/staticImage?type=png&systemId=HOST","lat":"30.2809699","lng":"-97.7306618","confidence":"1","placesPhotoReference":"","placesID":"","dateString":"3","monthString":"May","title":"Tue, May 3","YYYYMMDD":"20220503"}]