[{"showID":200,"dateShow":"2022-09-01T19:30:00","dateDoors":"","dateLots":"","timeZone":"America/Toronto","venue":"Centre Videotron","altName":"Qu√©bec","notes":"Capacity: 20,396","address":"250 Wilfrid-Hamel Blvd","city":"Quebec City","state":"QC","postal":"G1L 5A7","country":"Canada","phoneNbr":"844-267-4472","venueURL":"https://www.lecentrevideotron.ca/en","setlistURL":"http://www.livefootsteps.org/setlist/?show_id=1074","seatingURL":"https://maps.ticketmaster.com/maps/geometry/3/event/31005824E2482B18/staticImage?type=png&systemId=HOST","lat":"0.0","lng":"0.0","placesPhotoReference":"","placesID":"","dateString":"22","monthString":"Mar","title":"Tue, Mar 22","YYYYMMDD":"20220322"},{"showID":201,"dateShow":"2022-03-20T19:30:00","dateDoors":"","dateLots":"","timeZone":"America/Toronto","venue":"Canadian Tire Centre","altName":"Ottawa","notes":"Capacity: 19,153","address":"1000 Palladium Dr","city":"Ottawa","state":"ON","postal":"K2V 1A5","country":"Canada","phoneNbr":"","venueURL":"http://www.canadiantirecentre.com/","setlistURL":"http://www.livefootsteps.org/setlist/?show_id=1075","seatingURL":"https://maps.ticketmaster.com/maps/geometry/3/event/31005791A91D44FC/staticImage?type=png&systemId=HOST","lat":"0.0","lng":"0.0","placesPhotoReference":"","placesID":"","dateString":"20","monthString":"Mar","title":"Sun, Mar 20","YYYYMMDD":"20220320"},{"showID":202,"dateShow":"2022-09-06T19:30:00","dateDoors":"","dateLots":"","timeZone":"America/Toronto","venue":"FirstOntario Centre","altName":"Hamilton","notes":"Capacity: 17,383","address":"101 York Blvd","city":"Hamilton","state":"ON","postal":"L8R 3L4","country":"Canada","phoneNbr":"","venueURL":"http://www.coreentertainment.ca/FirstOntario-Centre/","setlistURL":"http://www.livefootsteps.org/setlist/?show_id=1076","seatingURL":"https://maps.ticketmaster.com/maps/geometry/3/event/10005797E0906B99/staticImage?type=png&systemId=HOST","lat":"0.0","lng":"0.0","placesPhotoReference":"","placesID":"","dateString":"24","monthString":"Mar","title":"Thu, Mar 24","YYYYMMDD":"20220324"},{"showID":203,"dateShow":"2022-09-08T19:30:00","dateDoors":"","dateLots":"","timeZone":"America/Toronto","venue":"Scotiabank Arena","altName":"Toronto","notes":"Capacity: 19,800","address":"40 Bay St","city":"Toronto","state":"ON","postal":"M5J 2X2","country":"Canada","phoneNbr":"","venueURL":"https://www.scotiabankarena.com/","setlistURL":"http://www.livefootsteps.org/setlist/?show_id=1077","seatingURL":"https://maps.ticketmaster.com/maps/geometry/3/event/10005794A14135ED/staticImage?type=png&systemId=HOST","lat":"0.0","lng":"0.0","placesPhotoReference":"","placesID":"","dateString":"18","monthString":"Mar","title":"Fri, Mar 18","YYYYMMDD":"20220318"},{"showID":204,"dateShow":"2022-09-11T19:30:00","dateDoors":"","dateLots":"","timeZone":"America/New_York","venue":"Madison Square Garden","altName":"New York","notes":"Capacity: 20,789","address":"4 Pennsylvania Plaza","city":"New York","state":"NY","postal":"10001","country":"USA","phoneNbr":"","venueURL":"https://www.msg.com","setlistURL":"http://www.livefootsteps.org/setlist/?show_id=1078","seatingURL":"https://maps.ticketmaster.com/maps/geometry/3/event/3B005B3ABE8F1362/staticImage?type=png&systemId=HOST","lat":"0.0","lng":"0.0","placesPhotoReference":"","placesID":"","dateString":"30","monthString":"Mar","title":"Wed, Mar 30","YYYYMMDD":"20220330"},{"showID":205,"dateShow":"2022-09-14T19:30:00","dateDoors":"","dateLots":"","timeZone":"America/New_York","venue":"Waterfront Music Pavilion","altName":"Camden","notes":"Capacity: 25,000","address":"1 Harbour Blvd","city":"Camden","state":"NJ","postal":"08103","country":"USA","phoneNbr":"856-365-1300","venueURL":"https://www.livenation.com/venue/KovZpZAEAIEA/waterfront-music-pavilion-formerly-bb-t-pavilion-events","setlistURL":"http://www.livefootsteps.org/setlist/?show_id=1079","seatingURL":"https://maps.ticketmaster.com/maps/geometry/3/event/02005C68BEDC2439/staticImage?type=png&systemId=HOST","lat":"0.0","lng":"0.0","placesPhotoReference":"","placesID":"","dateString":"28","monthString":"Mar","title":"Mon, Mar 28","YYYYMMDD":"20220328"},{"showID":206,"dateShow":"2022-09-16T19:30:00","dateDoors":"","dateLots":"","timeZone":"America/Chicago","venue":"Bridgestone Arena","altName":"Nashville","notes":"Capacity: 20,000","address":"501 Broadway","city":"Nashville","state":"TN","postal":"37203","country":"USA","phoneNbr":"","venueURL":"https://www.bridgestonearena.com/","setlistURL":"http://www.livefootsteps.org/setlist/?show_id=1080","seatingURL":"https://maps.ticketmaster.com/maps/geometry/3/event/1B00579D889F2505/staticImage?type=png&systemId=HOST","lat":"0.0","lng":"0.0","placesPhotoReference":"","placesID":"","dateString":"2","monthString":"Apr","title":"Sat, Apr 2","YYYYMMDD":"20220402"},{"showID":207,"dateShow":"2022-09-17T19:30:00","dateDoors":"","dateLots":"","timeZone":"America/Chicago","venue":"Kentucky Expo Center","altName":"Louisville","notes":"Bourbon & Beyond Festival","address":"937 Phillips Ln","city":"Louisville","state":"KY","postal":"40209","country":"USA","phoneNbr":"502-367-5000","venueURL":"https://kyexpo.org/","setlistURL":"http://www.livefootsteps.org/setlist/?show_id=1083","seatingURL":"https://bourbonandbeyond.com/","lat":"0.0","lng":"0.0","placesPhotoReference":"","placesID":"","dateString":"2","monthString":"Apr","title":"Sat, Apr 2","YYYYMMDD":"20220402"},{"showID":208,"dateShow":"2022-09-18T19:30:00","dateDoors":"","dateLots":"","timeZone":"America/Chicago","venue":"Enterprise Center","altName":"St. Louis","notes":"Capacity: 19,260","address":"1401 Clark Ave","city":"St. Louis","state":"MO","postal":"63103","country":"USA","phoneNbr":"314-622-5400","venueURL":"http://www.enterprisecenter.com/","setlistURL":"http://www.livefootsteps.org/setlist/?show_id=1081","seatingURL":"https://maps.ticketmaster.com/maps/geometry/3/event/06005795AE6F4072/staticImage?type=png&systemId=HOST","lat":"0.0","lng":"0.0","placesPhotoReference":"","placesID":"","dateString":"4","monthString":"Apr","title":"Mon, Apr 4","YYYYMMDD":"20220404"},{"showID":209,"dateShow":"2022-04-06T20:00:00","dateDoors":"","dateLots":"","timeZone":"America/Chicago","venue":"Paycom Center","altName":"Oklahoma City","notes":"Capacity: 18,203","address":"100 W Reno Ave","city":"Oklahoma City","state":"OK","postal":"73102","country":"USA","phoneNbr":"405-602-8700","venueURL":"https://www.paycomcenter.com/","setlistURL":"http://www.livefootsteps.org/setlist/?show_id=1082","seatingURL":"https://maps.ticketmaster.com/maps/geometry/3/event/0C005794AED354D5/staticImage?type=png&systemId=HOST","lat":"0.0","lng":"0.0","placesPhotoReference":"","placesID":"","dateString":"6","monthString":"Apr","title":"Wed, Apr 6","YYYYMMDD":"20220406"},{"showID":210,"dateShow":"2022-09-22T19:30:00","dateDoors":"","dateLots":"","timeZone":"America/Denver","venue":"Ball Arena","altName":"Denver","notes":"Capacity: 20,000","address":"1000 Chopper Cir","city":"Denver","state":"CO","postal":"80204","country":"USA","phoneNbr":"303-405-1100","venueURL":"https://www.pepsicenter.com/","setlistURL":"http://www.livefootsteps.org/setlist/?show_id=1083","seatingURL":"https://maps.ticketmaster.com/maps/geometry/3/event/1E0058268F05212B/staticImage?type=png&systemId=HOST","lat":"0.0","lng":"0.0","placesPhotoReference":"","placesID":"","dateString":"9","monthString":"Apr","title":"Sat, Apr 9","YYYYMMDD":"20220409"}]