[{"showID":100,"dateShow":"2024-10-25T19:30:00","dateDoors":"2024-10-25T18:00:00","dateLots":"","timeZone":"America/New_York","venue":"MVP Arena","altName":"Albany","notes":"A Benefit for Divided Sky Foundation","address":"51 S Pearl St","city":"Albany","state":"NY","postal":"12207","country":"USA","phoneNbr":"518-487-2000","venueURL":"https://www.mvparena.com/","setlistURL":"http://phish.net/setlists/?d=2024-10-25","seatingURL":"https://mapsapi.tmol.io/maps/geometry/3/event/00006129A11A1A06/staticImage?type=png&systemId=HOST","lat":"0.0","lng":"0.0","confidence":"0","placesPhotoReference":"","placesID":"","dateString":"19","monthString":"Jul","title":"Fri, Jul 19","YYYYMMDD":"20240719"},{"showID":101,"dateShow":"2024-10-26T19:30:00","dateDoors":"2024-10-26T18:00:00","dateLots":"","timeZone":"America/New_York","venue":"MVP Arena","altName":"Albany","notes":"A Benefit for Divided Sky Foundation","address":"51 S Pearl St","city":"Albany","state":"NY","postal":"12207","country":"USA","phoneNbr":"518-487-2000","venueURL":"https://www.mvparena.com/","setlistURL":"http://phish.net/setlists/?d=2024-10-26","seatingURL":"https://mapsapi.tmol.io/maps/geometry/3/event/00006129A11A1A06/staticImage?type=png&systemId=HOST","lat":"0.0","lng":"0.0","confidence":"0","placesPhotoReference":"","placesID":"","dateString":"19","monthString":"Jul","title":"Fri, Jul 19","YYYYMMDD":"20240719"},{"showID":100,"dateShow":"2024-10-27T19:30:00","dateDoors":"2024-10-27T18:00:00","dateLots":"","timeZone":"America/New_York","venue":"MVP Arena","altName":"Albany","notes":"A Benefit for Divided Sky Foundation","address":"51 S Pearl St","city":"Albany","state":"NY","postal":"12207","country":"USA","phoneNbr":"518-487-2000","venueURL":"https://www.mvparena.com/","setlistURL":"http://phish.net/setlists/?d=2024-10-27","seatingURL":"https://mapsapi.tmol.io/maps/geometry/3/event/00006129A11A1A06/staticImage?type=png&systemId=HOST","lat":"0.0","lng":"0.0","confidence":"0","placesPhotoReference":"","placesID":"","dateString":"19","monthString":"Jul","title":"Fri, Jul 19","YYYYMMDD":"20240719"}]