[{"showID":100,"dateShow":"2023-05-19T19:00:00","dateDoors":"","dateLots":"","timeZone":"America/Los_Angeles","venue":"The Forum","altName":"Inglewood","notes":"Capacity: 17,505","address":"3900 W Manchester Blvd","city":"Inglewood","state":"CA","postal":"90305","country":"USA","phoneNbr":"","venueURL":"https://www.msg.com/the-forum","setlistURL":"https://www.setlist.fm/setlists/dead-and-company-2bc42076.html","seatingURL":"https://maps.ticketmaster.com/maps/geometry/3/event/09005D4406EA86FF/staticImage?type=png&systemId=HOST","lat":"33.9582109","lng":"-118.3419015","confidence":"1","placesPhotoReference":"","placesID":"","dateString":"11","monthString":"Jun","title":"Sat, Jun 11","YYYYMMDD":"20230611"},{"showID":101,"dateShow":"2023-05-20T19:00:00","dateDoors":"","dateLots":"","timeZone":"America/Los_Angeles","venue":"The Forum","altName":"Inglewood","notes":"Capacity: 17,505","address":"3900 W Manchester Blvd","city":"Inglewood","state":"CA","postal":"90305","country":"USA","phoneNbr":"","venueURL":"https://www.msg.com/the-forum","setlistURL":"https://www.setlist.fm/setlists/dead-and-company-2bc42076.html","seatingURL":"https://maps.ticketmaster.com/maps/geometry/3/event/09005D4406EA86FF/staticImage?type=png&systemId=HOST","lat":"33.9582109","lng":"-118.3419015","confidence":"1","placesPhotoReference":"","placesID":"","dateString":"11","monthString":"Jun","title":"Sat, Jun 11","YYYYMMDD":"20230611"},{"showID":102,"dateShow":"2023-05-23T19:00:00","dateDoors":"","dateLots":"","timeZone":"America/Phoenix","venue":"Ak-Chin Pavilion","altName":"Phoenix","notes":"Capacity: 20,106","address":"2121 N 83rd Ave","city":"Phoenix","state":"AZ","postal":"85035","country":"USA","phoneNbr":"602-254-7200","venueURL":"https://www.livenation.com/venue/KovZpZAE6vJA/ak-chin-pavilion-events?utm_source=GMBlisting&utm_medium=organic","setlistURL":"https://www.setlist.fm/setlists/dead-and-company-2bc42076.html","seatingURL":"https://maps.ticketmaster.com/maps/geometry/3/event/19005D45DEEE36F3/staticImage?type=png&systemId=HOST","lat":"33.4715155","lng":"-112.2328524","confidence":"1","placesPhotoReference":"","placesID":"","dateString":"11","monthString":"Jun","title":"Sat, Jun 11","YYYYMMDD":"20230611"},{"showID":103,"dateShow":"2023-05-26T19:00:00","dateDoors":"","dateLots":"","timeZone":"America/Chicago","venue":"Dos Equis Pavilion","altName":"Dallas","notes":"Capacity: 20,000","address":"1818 1st Ave","city":"Dallas","state":"TX","postal":"75210","country":"USA","phoneNbr":"214-421-1111","venueURL":"https://www.livenation.com/venue/KovZpZAEAFeA/dos-equis-pavilion-events?utm_source=GMBlisting&utm_medium=organic","setlistURL":"https://www.setlist.fm/setlists/dead-and-company-2bc42076.html","seatingURL":"https://maps.ticketmaster.com/maps/geometry/3/event/0C005D45CC392FA6/staticImage?type=png&systemId=HOST","lat":"32.7750304","lng":"-96.7565534","confidence":"1","placesPhotoReference":"","placesID":"","dateString":"11","monthString":"Jun","title":"Sat, Jun 11","YYYYMMDD":"20230611"},{"showID":104,"dateShow":"2023-05-28T19:00:00","dateDoors":"","dateLots":"","timeZone":"America/New_York","venue":"Cellaris Amphitheatre","altName":"Lakewood","notes":"Capacity: 18,920","address":"2002 Lakewood Way SW","city":"Atlanta","state":"GA","postal":"30315","country":"USA","phoneNbr":"404-443-5090","venueURL":"https://www.livenation.com/venue/KovZpZAEkeFA/cellairis-amphitheatre-at-lakewood-events?utm_source=GMBlisting&utm_medium=organic","setlistURL":"https://www.setlist.fm/setlists/dead-and-company-2bc42076.html","seatingURL":"https://maps.ticketmaster.com/maps/geometry/3/event/0E005D45F5F84971/staticImage?type=png&systemId=HOST","lat":"33.7035034","lng":"-84.3972912","confidence":"1","placesPhotoReference":"","placesID":"","dateString":"11","monthString":"Jun","title":"Sat, Jun 11","YYYYMMDD":"20230611"},{"showID":105,"dateShow":"2023-05-30T19:00:00","dateDoors":"","dateLots":"","timeZone":"America/New_York","venue":"PNC Music Pavilion","altName":"Charlotte","notes":"Capacity: 19,500","address":"707 Pavilion Blvd","city":"Charlotte","state":"NC","postal":"28262","country":"USA","phoneNbr":"704-549-5555","venueURL":"http://charlottemusicpavilion.com/","setlistURL":"https://www.setlist.fm/setlists/dead-and-company-2bc42076.html","seatingURL":"https://maps.ticketmaster.com/maps/geometry/3/event/2D005D449B5B237B/staticImage?type=png&systemId=HOST","lat":"35.3271592","lng":"-80.7123113","confidence":"1","placesPhotoReference":"","placesID":"","dateString":"11","monthString":"Jun","title":"Sat, Jun 11","YYYYMMDD":"20230611"},{"showID":106,"dateShow":"2023-06-01T19:00:00","dateDoors":"","dateLots":"","timeZone":"America/New_York","venue":"Coastal Credit Union Music Park","altName":"Walnut Creek","notes":"Capacity: 20,601","address":"3801 Rock Quarry Rd","city":"Raleigh","state":"NC","postal":"27610","country":"USA","phoneNbr":"919-831-6400","venueURL":"https://www.livenation.com/venue/KovZpZAEkeaA/coastal-credit-union-music-park-at-walnut-creek-events","setlistURL":"https://www.setlist.fm/setlists/dead-and-company-2bc42076.html","seatingURL":"https://maps.ticketmaster.com/maps/geometry/3/event/2D005D45CBE84AC4/staticImage?type=png&systemId=HOST","lat":"35.748568","lng":"-78.57731439999999","confidence":"1","placesPhotoReference":"","placesID":"","dateString":"11","monthString":"Jun","title":"Sat, Jun 11","YYYYMMDD":"20230611"},{"showID":107,"dateShow":"2023-06-03T19:00:00","dateDoors":"","dateLots":"","timeZone":"America/New_York","venue":"Jiffy Lube Live","altName":"Bristow","notes":"Capacity: 25,262","address":"7800 Cellar Door Dr","city":"Bristow","state":"VA","postal":"20136","country":"USA","phoneNbr":"","venueURL":"https://www.livenation.com/venue/KovZpZAEk6JA/jiffy-lube-live-events","setlistURL":"https://www.setlist.fm/setlists/dead-and-company-2bc42076.html","seatingURL":"https://maps.ticketmaster.com/maps/geometry/3/event/15005D45DF47415F/staticImage?type=png&systemId=HOST","lat":"38.7858988","lng":"-77.5895951","confidence":"1","placesPhotoReference":"","placesID":"","dateString":"11","monthString":"Jun","title":"Sat, Jun 11","YYYYMMDD":"20230611"},{"showID":108,"dateShow":"2023-06-05T19:00:00","dateDoors":"","dateLots":"","timeZone":"America/New_York","venue":"The Pavilion at Star Lake","altName":"Burgettstown","notes":"Capacity: 23,000","address":"665 PA-18","city":"Burgettstown","state":"PA","postal":"15021","country":"USA","phoneNbr":"724-947-7400","venueURL":"https://www.livenation.com/venue/KovZpZAEk71A/the-pavilion-at-star-lake-events","setlistURL":"https://www.setlist.fm/setlists/dead-and-company-2bc42076.html","seatingURL":"https://maps.ticketmaster.com/maps/geometry/3/event/16005D45F791635D/staticImage?type=png&systemId=HOST","lat":"40.4194049","lng":"-80.4341542","confidence":"1","placesPhotoReference":"","placesID":"","dateString":"11","monthString":"Jun","title":"Sat, Jun 11","YYYYMMDD":"20230611"},{"showID":109,"dateShow":"2023-06-07T19:00:00","dateDoors":"","dateLots":"","timeZone":"America/Chicago","venue":"Hollywood Casino Amphitheatre","altName":"Maryland Heights","notes":"Capacity: 20,000","address":"14141 Riverport Dr","city":"Maryland Heights","state":"MO","postal":"63043","country":"USA","phoneNbr":"314-298-9944","venueURL":"https://www.livenation.com/venue/KovZpZAEAnaA/hollywood-casino-amphitheatre-st-louis-mo-events","setlistURL":"https://www.setlist.fm/setlists/dead-and-company-2bc42076.html","seatingURL":"https://maps.ticketmaster.com/maps/geometry/3/event/06005D458A341EB4/staticImage?type=png&systemId=HOST","lat":"38.7443756","lng":"-90.4696075","confidence":"1","placesPhotoReference":"","placesID":"","dateString":"11","monthString":"Jun","title":"Sat, Jun 11","YYYYMMDD":"20230611"},{"showID":110,"dateShow":"2023-06-09T18:30:00","dateDoors":"","dateLots":"","timeZone":"America/New_York","venue":"Riverbend Music Center","altName":"Cincinnati","notes":"Capacity: 20,500","address":"6295 Kellogg Ave","city":"Cincinnati","state":"OH","postal":"45230","country":"USA","phoneNbr":"513-232-6220","venueURL":"https://riverbend.org/","setlistURL":"https://www.setlist.fm/setlists/dead-and-company-2bc42076.html","seatingURL":"https://content.resale.ticketmaster.com/graphics/TMResale/2/VenueMaps/1905-35310-2-0-WrigleyField81807.png","lat":"39.0519431","lng":"-84.41889669999999","confidence":"1","placesPhotoReference":"","placesID":"","dateString":"11","monthString":"Jun","title":"Sat, Jun 11","YYYYMMDD":"20230611"},{"showID":111,"dateShow":"2023-06-10T18:30:00","dateDoors":"","dateLots":"","timeZone":"America/Chicago","venue":"Wrigley Field","altName":"Chicago","notes":"","address":"1060 W Addison St","city":"Chicago","state":"IL","postal":"60613","country":"USA","phoneNbr":"773-404-2827","venueURL":"https://www.mlb.com/cubs/ballpark","setlistURL":"https://www.setlist.fm/setlists/dead-and-company-2bc42076.html","seatingURL":"https://content.resale.ticketmaster.com/graphics/TMResale/2/VenueMaps/1905-35310-2-0-WrigleyField81807.png","lat":"41.9484384","lng":"-87.6553327","confidence":"1","placesPhotoReference":"","placesID":"","dateString":"11","monthString":"Jun","title":"Sat, Jun 11","YYYYMMDD":"20230611"},{"showID":112,"dateShow":"2023-06-13T19:00:00","dateDoors":"","dateLots":"","timeZone":"America/New_York","venue":"Riverbend Music Center","altName":"Cincinnati","notes":"Capacity: 20,500","address":"6295 Kellogg Ave","city":"Cincinnati","state":"OH","postal":"45230","country":"USA","phoneNbr":"513-232-6220","venueURL":"https://riverbend.org/","setlistURL":"https://www.setlist.fm/setlists/dead-and-company-2bc42076.html","seatingURL":"https://maps.ticketmaster.com/maps/geometry/3/event/16005D44F9EF4569/staticImage?type=png&systemId=HOST","lat":"39.0519431","lng":"-84.41889669999999","confidence":"1","placesPhotoReference":"","placesID":"","dateString":"11","monthString":"Jun","title":"Sat, Jun 11","YYYYMMDD":"20230611"},{"showID":113,"dateShow":"2023-06-15T19:00:00","dateDoors":"","dateLots":"","timeZone":"America/New_York","venue":"Citizens Bank Park","altName":"Philadelphia","notes":"","address":"1 Citizens Bank Way","city":"Philadelphia","state":"PA","postal":"19148","country":"USA","phoneNbr":"215-463-1000","venueURL":"https://www.mlb.com/phillies/ballpark","setlistURL":"https://www.setlist.fm/setlists/dead-and-company-2bc42076.html","seatingURL":"https://maps.ticketmaster.com/maps/geometry/3/event/02005D45DA2E47DE/staticImage?type=png&systemId=HOST","lat":"39.9060572","lng":"-75.1664952","confidence":"1","placesPhotoReference":"","placesID":"","dateString":"11","monthString":"Jun","title":"Sat, Jun 11","YYYYMMDD":"20230611"},{"showID":114,"dateShow":"2023-06-17T19:00:00","dateDoors":"","dateLots":"","timeZone":"America/New_York","venue":"Saratoga Performing Arts Center","altName":"Saratoga Springs","notes":"Capacity: 25,100","address":"108 Avenue of the Pines","city":"Saratoga Springs","state":"NY","postal":"12866","country":"USA","phoneNbr":"518-584-9330","venueURL":"https://spac.org/","setlistURL":"https://www.setlist.fm/setlists/dead-and-company-2bc42076.html","seatingURL":"https://maps.ticketmaster.com/maps/geometry/3/event/00005D45BE4529EB/staticImage?type=png&systemId=HOST","lat":"43.055381","lng":"-73.80593","confidence":"1","placesPhotoReference":"","placesID":"","dateString":"11","monthString":"Jun","title":"Sat, Jun 11","YYYYMMDD":"20230611"},{"showID":115,"dateShow":"2023-06-18T19:00:00","dateDoors":"","dateLots":"","timeZone":"America/New_York","venue":"Saratoga Performing Arts Center","altName":"Saratoga Springs","notes":"Capacity: 25,100","address":"108 Avenue of the Pines","city":"Saratoga Springs","state":"NY","postal":"12866","country":"USA","phoneNbr":"518-584-9330","venueURL":"https://spac.org/","setlistURL":"https://www.setlist.fm/setlists/dead-and-company-2bc42076.html","seatingURL":"https://maps.ticketmaster.com/maps/geometry/3/event/00005D45BE4529EB/staticImage?type=png&systemId=HOST","lat":"43.055381","lng":"-73.80593","confidence":"1","placesPhotoReference":"","placesID":"","dateString":"11","monthString":"Jun","title":"Sat, Jun 11","YYYYMMDD":"20230611"},{"showID":116,"dateShow":"2023-06-21T19:30:00","dateDoors":"","dateLots":"","timeZone":"America/New_York","venue":"Citi Field","altName":"Queens","notes":"","address":"41 Seaver Way","city":"Queens","state":"NY","postal":"11368","country":"USA","phoneNbr":"718-507-8499","venueURL":"https://www.mlb.com/mets/ballpark","setlistURL":"https://www.setlist.fm/setlists/dead-and-company-2bc42076.html","seatingURL":"https://maps.ticketmaster.com/maps/geometry/3/event/1D005D45FDC02A5A/staticImage?type=png&systemId=HOST","lat":"40.7570877","lng":"-73.8458213","confidence":"1","placesPhotoReference":"","placesID":"","dateString":"11","monthString":"Jun","title":"Sat, Jun 11","YYYYMMDD":"20230611"},{"showID":117,"dateShow":"2023-06-22T19:30:00","dateDoors":"","dateLots":"","timeZone":"America/New_York","venue":"Citi Field","altName":"Queens","notes":"","address":"41 Seaver Way","city":"Queens","state":"NY","postal":"11368","country":"USA","phoneNbr":"718-507-8499","venueURL":"https://www.mlb.com/mets/ballpark","setlistURL":"https://www.setlist.fm/setlists/dead-and-company-2bc42076.html","seatingURL":"https://maps.ticketmaster.com/maps/geometry/3/event/1D005D45FDC02A5A/staticImage?type=png&systemId=HOST","lat":"40.7570877","lng":"-73.8458213","confidence":"1","placesPhotoReference":"","placesID":"","dateString":"11","monthString":"Jun","title":"Sat, Jun 11","YYYYMMDD":"20230611"},{"showID":118,"dateShow":"2023-06-24T18:30:00","dateDoors":"","dateLots":"","timeZone":"America/New_York","venue":"Fenway Park","altName":"Boston","notes":"Capacity: 47,627","address":"4 Jersey St","city":"Boston","state":"MA","postal":"02215","country":"USA","phoneNbr":"","venueURL":"https://www.mlb.com/redsox/ballpark","setlistURL":"https://www.setlist.fm/setlists/dead-and-company-2bc42076.html","seatingURL":"https://maps.ticketmaster.com/maps/geometry/3/event/01005D45738A102D/staticImage?type=png&systemId=HOST","lat":"42.3466764","lng":"-71.0972178","confidence":"1","placesPhotoReference":"","placesID":"","dateString":"11","monthString":"Jun","title":"Sat, Jun 11","YYYYMMDD":"20230611"},{"showID":119,"dateShow":"2023-06-25T18:30:00","dateDoors":"","dateLots":"","timeZone":"America/New_York","venue":"Fenway Park","altName":"Boston","notes":"Capacity: 47,627","address":"4 Jersey St","city":"Boston","state":"MA","postal":"02215","country":"USA","phoneNbr":"","venueURL":"https://www.mlb.com/redsox/ballpark","setlistURL":"https://www.setlist.fm/setlists/dead-and-company-2bc42076.html","seatingURL":"https://maps.ticketmaster.com/maps/geometry/3/event/01005D45738A102D/staticImage?type=png&systemId=HOST","lat":"42.3466764","lng":"-71.0972178","confidence":"1","placesPhotoReference":"","placesID":"","dateString":"11","monthString":"Jun","title":"Sat, Jun 11","YYYYMMDD":"20230611"},{"showID":120,"dateShow":"2023-06-27T19:00:00","dateDoors":"","dateLots":"","timeZone":"America/Indianapolis","venue":"Ruoff Music Center","altName":"Deer Creek","notes":"Capacity: 24,790","address":"12880 E 146th St","city":"Noblesville","state":"IN","postal":"46060","country":"USA","phoneNbr":"317-776-8181","venueURL":"https://www.livenation.com/venue/KovZpvEk7A/ruoff-music-center-events","setlistURL":"https://www.setlist.fm/setlists/dead-and-company-2bc42076.html","seatingURL":"https://maps.ticketmaster.com/maps/geometry/3/event/05005D45C901429B/staticImage?type=png&systemId=HOST","lat":"40.0048561","lng":"-85.9308013","confidence":"1","placesPhotoReference":"","placesID":"","dateString":"11","monthString":"Jun","title":"Sat, Jun 11","YYYYMMDD":"20230611"},{"showID":121,"dateShow":"2023-07-01T19:00:00","dateDoors":"","dateLots":"","timeZone":"America/Denver","venue":"Folsom Field","altName":"Boulder","notes":"Capacity: 50,183","address":"2400 Colorado Ave","city":"Boulder","state":"CO","postal":"80305","country":"USA","phoneNbr":"","venueURL":"https://cubuffs.com/facilities/folsom-field/1","setlistURL":"https://www.setlist.fm/setlists/dead-and-company-2bc42076.html","seatingURL":"https://content.resale.ticketmaster.com/graphics/TMResale/2/VenueMaps/582-35310-2-0-FolsomFieldStadiumDeadandCompany.png","lat":"40.009472","lng":"-105.2668869","confidence":"1","placesPhotoReference":"","placesID":"","dateString":"11","monthString":"Jun","title":"Sat, Jun 11","YYYYMMDD":"20230611"},{"showID":122,"dateShow":"2023-07-02T19:00:00","dateDoors":"","dateLots":"","timeZone":"America/Denver","venue":"Folsom Field","altName":"Boulder","notes":"Capacity: 50,183","address":"2400 Colorado Ave","city":"Boulder","state":"CO","postal":"80305","country":"USA","phoneNbr":"","venueURL":"https://cubuffs.com/facilities/folsom-field/1","setlistURL":"https://www.setlist.fm/setlists/dead-and-company-2bc42076.html","seatingURL":"https://content.resale.ticketmaster.com/graphics/TMResale/2/VenueMaps/582-35310-2-0-FolsomFieldStadiumDeadandCompany.png","lat":"40.009472","lng":"-105.2668869","confidence":"1","placesPhotoReference":"","placesID":"","dateString":"11","monthString":"Jun","title":"Sat, Jun 11","YYYYMMDD":"20230611"},{"showID":123,"dateShow":"2023-07-03T19:00:00","dateDoors":"","dateLots":"","timeZone":"America/Denver","venue":"Folsom Field","altName":"Boulder","notes":"Capacity: 50,183","address":"2400 Colorado Ave","city":"Boulder","state":"CO","postal":"80305","country":"USA","phoneNbr":"","venueURL":"https://cubuffs.com/facilities/folsom-field/1","setlistURL":"https://www.setlist.fm/setlists/dead-and-company-2bc42076.html","seatingURL":"https://content.resale.ticketmaster.com/graphics/TMResale/2/VenueMaps/582-35310-2-0-FolsomFieldStadiumDeadandCompany.png","lat":"40.009472","lng":"-105.2668869","confidence":"1","placesPhotoReference":"","placesID":"","dateString":"11","monthString":"Jun","title":"Sat, Jun 11","YYYYMMDD":"20230611"},{"showID":124,"dateShow":"2023-07-07T19:00:00","dateDoors":"","dateLots":"","timeZone":"America/Los_Angeles","venue":"Gorge Amphitheatre","altName":"The Gorge","notes":"Capacity: 27,500","address":"754 Silica Rd NW","city":"George","state":"WA","postal":"98848","country":"USA","phoneNbr":"","venueURL":"https://www.livenation.com/venue/KovZpZAEkk1A/gorge-amphitheatre-events","setlistURL":"https://www.setlist.fm/setlists/dead-and-company-2bc42076.html","seatingURL":"https://maps.ticketmaster.com/maps/geometry/3/event/0F005D45CCDE4CE0/staticImage?type=png&systemId=HOST","lat":"47.1013397","lng":"-119.9956821","confidence":"1","placesPhotoReference":"","placesID":"","dateString":"11","monthString":"Jun","title":"Sat, Jun 11","YYYYMMDD":"20230611"},{"showID":125,"dateShow":"2023-07-08T19:00:00","dateDoors":"","dateLots":"","timeZone":"America/Los_Angeles","venue":"Gorge Amphitheatre","altName":"The Gorge","notes":"Capacity: 27,500","address":"754 Silica Rd NW","city":"George","state":"WA","postal":"98848","country":"USA","phoneNbr":"","venueURL":"https://www.livenation.com/venue/KovZpZAEkk1A/gorge-amphitheatre-events","setlistURL":"https://www.setlist.fm/setlists/dead-and-company-2bc42076.html","seatingURL":"https://maps.ticketmaster.com/maps/geometry/3/event/0F005D45CCDE4CE0/staticImage?type=png&systemId=HOST","lat":"47.1013397","lng":"-119.9956821","confidence":"1","placesPhotoReference":"","placesID":"","dateString":"11","monthString":"Jun","title":"Sat, Jun 11","YYYYMMDD":"20230611"},{"showID":126,"dateShow":"2023-07-14T19:00:00","dateDoors":"","dateLots":"","timeZone":"America/Los_Angeles","venue":"Oracle Park","altName":"San Francisco","notes":"Capacity: 41,915","address":"24 Willie Mays Plaza","city":"San Francisco","state":"CA","postal":"94107","country":"USA","phoneNbr":"415-972-2000","venueURL":"https://www.mlb.com/giants/ballpark","setlistURL":"https://www.setlist.fm/setlists/dead-and-company-2bc42076.html","seatingURL":"https://maps.ticketmaster.com/maps/geometry/3/event/1C005D45D2615662/staticImage?type=png&systemId=HOST","lat":"37.7785951","lng":"-122.3892698","confidence":"1","placesPhotoReference":"","placesID":"","dateString":"11","monthString":"Jun","title":"Sat, Jun 11","YYYYMMDD":"20230611"},{"showID":127,"dateShow":"2023-07-15T19:00:00","dateDoors":"","dateLots":"","timeZone":"America/Los_Angeles","venue":"Oracle Park","altName":"San Francisco","notes":"Capacity: 41,915","address":"24 Willie Mays Plaza","city":"San Francisco","state":"CA","postal":"94107","country":"USA","phoneNbr":"415-972-2000","venueURL":"https://www.mlb.com/giants/ballpark","setlistURL":"https://www.setlist.fm/setlists/dead-and-company-2bc42076.html","seatingURL":"https://maps.ticketmaster.com/maps/geometry/3/event/1C005D45D2615662/staticImage?type=png&systemId=HOST","lat":"37.7785951","lng":"-122.3892698","confidence":"1","placesPhotoReference":"","placesID":"","dateString":"11","monthString":"Jun","title":"Sat, Jun 11","YYYYMMDD":"20230611"},{"showID":128,"dateShow":"2023-07-16T19:00:00","dateDoors":"","dateLots":"","timeZone":"America/Los_Angeles","venue":"Oracle Park","altName":"San Francisco","notes":"Capacity: 41,915","address":"24 Willie Mays Plaza","city":"San Francisco","state":"CA","postal":"94107","country":"USA","phoneNbr":"415-972-2000","venueURL":"https://www.mlb.com/giants/ballpark","setlistURL":"https://www.setlist.fm/setlists/dead-and-company-2bc42076.html","seatingURL":"https://maps.ticketmaster.com/maps/geometry/3/event/1C005D45D2615662/staticImage?type=png&systemId=HOST","lat":"37.7785951","lng":"-122.3892698","confidence":"1","placesPhotoReference":"","placesID":"","dateString":"11","monthString":"Jun","title":"Sat, Jun 11","YYYYMMDD":"20230611"}]