[{"showID":0,"dateShow":"2025-12-28T19:30:00","dateDoors":"2025-12-28T18:30:00","dateLots":"","timeZone":"America/New_York","venue":"Madison Square Garden","altName":"New York","notes":"Capacity: 20,879","address":"4 Pennsylvania Plaza","city":"New York","state":"NY","postal":"10001","country":"USA","phoneNbr":"212-465-6741","venueURL":"https://www.msg.com/madison-square-garden","setlistURL":"http://phish.net/setlists/?d=2025-12-28","seatingURL":"https://s3.amazonaws.com/prd218.tm-prod.tt.prod.us-east-1.tmaws-cdn/prod1/V2/a/65/a6554c3e13835aae6fa27944d38707140e86592e.png","lat":"40.7505621","lng":"-73.99347089999999","confidence":"1","placesPhotoReference":"","placesID":"","dateString":"28","monthString":"Dec","title":"Sun, Dec 28","YYYYMMDD":"20251228"},{"showID":100,"dateShow":"2026-01-28T19:30:00","dateDoors":"2026-01-28T18:00:00","dateLots":"","timeZone":"America/Cancun","venue":"Moon Palace","altName":"Riviera Maya","notes":"","address":"Cancun-Chetumal km 36.5","city":"Alfredo Bonfil","state":"77500 Canc√∫n","postal":"Q.R.","country":"Mexico","phoneNbr":"+52 800 262 9008","venueURL":"https://www.moonpalace.com/en","setlistURL":"http://phish.net/setlists/?d=2026-01-28","seatingURL":"https://www.phishrivieramaya.com/activity-schedule/","lat":"20.9886511","lng":"-86.826701","confidence":"1","placesPhotoReference":"","placesID":"","dateString":"28","monthString":"Jan","title":"Wed, Jan 28","YYYYMMDD":"20260128"},{"showID":200,"dateShow":"2026-04-16T19:30:00","dateDoors":"2026-04-16T18:00:00","dateLots":"","timeZone":"America/Los_Angeles","venue":"Sphere","altName":"Las Vegas","notes":"Capacity: 18,600","address":"255 Sands Ave","city":"Las Vegas","state":"NV","postal":"89169","country":"USA","phoneNbr":"725-258-0001","venueURL":"https://www.thespherevegas.com/","setlistURL":"http://phish.net/setlists/?d=2026-04-16","seatingURL":"https://s3.amazonaws.com/prd218.tm-prod.tt.prod.us-east-1.tmaws-cdn/prod1/V2/0/fe/0fef4ede7547f5e1f7da76a99960b3fddd5ba53a.png","lat":"36.121217","lng":"-115.1620404","confidence":"1","placesPhotoReference":"","placesID":"","dateString":"16","monthString":"Apr","title":"Thu, Apr 16","YYYYMMDD":"20260416"}]