[{"showID":0,"dateShow":"2023-01-14T19:00:00","dateDoors":"","dateLots":"","timeZone":"America/Cancun","venue":"Moon Palace","altName":"Riviera Maya","notes":"Playing in the Sand","address":"Cancun-Chetumal km 36.5","city":"Alfredo Bonfil","state":"77500 Cancún","postal":"Q.R.","country":"Mexico","phoneNbr":"+52 800 262 9008","venueURL":"https://www.moonpalace.com/en","setlistURL":"https://www.setlist.fm/setlists/dead-and-company-2bc42076.html","seatingURL":"https://playinginthesand.com/","lat":"20.98886","lng":"-86.82904649999999","confidence":"1","placesPhotoReference":"","placesID":"","dateString":"14","monthString":"Jan","title":"Sat, Jan 14","YYYYMMDD":"20230114"},{"showID":1,"dateShow":"2023-01-15T19:00:00","dateDoors":"","dateLots":"","timeZone":"America/Cancun","venue":"Moon Palace","altName":"Riviera Maya","notes":"Playing in the Sand","address":"Cancun-Chetumal km 36.5","city":"Alfredo Bonfil","state":"77500 Cancún","postal":"Q.R.","country":"Mexico","phoneNbr":"+52 800 262 9008","venueURL":"https://www.moonpalace.com/en","setlistURL":"https://www.setlist.fm/setlists/dead-and-company-2bc42076.html","seatingURL":"https://playinginthesand.com/","lat":"20.98886","lng":"-86.82904649999999","confidence":"1","placesPhotoReference":"","placesID":"","dateString":"15","monthString":"Jan","title":"Sun, Jan 15","YYYYMMDD":"20230115"},{"showID":2,"dateShow":"2023-01-16T19:00:00","dateDoors":"","dateLots":"","timeZone":"America/Cancun","venue":"Moon Palace","altName":"Riviera Maya","notes":"Playing in the Sand","address":"Cancun-Chetumal km 36.5","city":"Alfredo Bonfil","state":"77500 Cancún","postal":"Q.R.","country":"Mexico","phoneNbr":"+52 800 262 9008","venueURL":"https://www.moonpalace.com/en","setlistURL":"https://www.setlist.fm/setlists/dead-and-company-2bc42076.html","seatingURL":"https://playinginthesand.com/","lat":"20.98886","lng":"-86.82904649999999","confidence":"1","placesPhotoReference":"","placesID":"","dateString":"16","monthString":"Jan","title":"Mon, Jan 16","YYYYMMDD":"20230116"}]