[{"showID":4,"dateShow":"2022-02-18T19:00:00","dateDoors":"2022-02-18T18:00:00","dateLots":"","timeZone":"America/New_York","venue":"Township Auditorium","altName":"Columbia","notes":"","address":"1703 Taylor St","city":"Columbia","state":"SC","postal":"29201","country":"USA","phoneNbr":"803-576-2350","venueURL":"https://thetownship.org/","setlistURL":"http://www.everydaycompanion.com/setlists/20220218a.asp","seatingURL":"https://maps.ticketmaster.com/maps/geometry/3/event/2D005B778BB21D0C/staticImage?type=png&systemId=HOST","lat":"0.0","lng":"0.0","confidence":"0","placesPhotoReference":"","placesID":"","dateString":"13","monthString":"Jan","title":"Thu, Jan 13","YYYYMMDD":"20220113"},{"showID":5,"dateShow":"2022-02-19T19:00:00","dateDoors":"2022-02-19T18:00:00","dateLots":"","timeZone":"America/New_York","venue":"Township Auditorium","altName":"Columbia","notes":"","address":"1703 Taylor St","city":"Columbia","state":"SC","postal":"29201","country":"USA","phoneNbr":"803-576-2350","venueURL":"https://thetownship.org/","setlistURL":"http://www.everydaycompanion.com/setlists/20220219a.asp","seatingURL":"https://maps.ticketmaster.com/maps/geometry/3/event/2D005B778BB21D0C/staticImage?type=png&systemId=HOST","lat":"0.0","lng":"0.0","confidence":"0","placesPhotoReference":"","placesID":"","dateString":"13","monthString":"Jan","title":"Thu, Jan 13","YYYYMMDD":"20220113"},{"showID":6,"dateShow":"2022-02-20T19:00:00","dateDoors":"2022-02-20T18:00:00","dateLots":"","timeZone":"America/New_York","venue":"Township Auditorium","altName":"Columbia","notes":"","address":"1703 Taylor St","city":"Columbia","state":"SC","postal":"29201","country":"USA","phoneNbr":"803-576-2350","venueURL":"https://thetownship.org/","setlistURL":"http://www.everydaycompanion.com/setlists/20220220a.asp","seatingURL":"https://maps.ticketmaster.com/maps/geometry/3/event/2D005B778BB21D0C/staticImage?type=png&systemId=HOST","lat":"0.0","lng":"0.0","confidence":"0","placesPhotoReference":"","placesID":"","dateString":"13","monthString":"Jan","title":"Thu, Jan 13","YYYYMMDD":"20220113"},{"showID":7,"dateShow":"2022-03-11T21:00:00","dateDoors":"2022-03-11T20:00:00","dateLots":"","timeZone":"America/Los_Angeles","venue":"The Theater at Virgin Hotels","altName":"Las Vegas","notes":"Capacity: 4,500","address":"4455 Paradise Rd","city":"Las Vegas","state":"NV","postal":"89169","country":"USA","phoneNbr":"702-693-5000","venueURL":"https://virginhotelslv.com/venue/the-theater/","setlistURL":"http://www.everydaycompanion.com/setlists/20220311a.asp","seatingURL":"https://maps.seatics.com/TheTheaterAtVirginHotels_LittleBigTown_2021-12-03_2021-09-30_1151_06162021_124930_SVGC_tn.png","lat":"0.0","lng":"0.0","confidence":"0","placesPhotoReference":"","placesID":"","dateString":"13","monthString":"Jan","title":"Thu, Jan 13","YYYYMMDD":"20220113"},{"showID":8,"dateShow":"2022-03-12T21:00:00","dateDoors":"2022-03-12T20:00:00","dateLots":"","timeZone":"America/Los_Angeles","venue":"The Theater at Virgin Hotels","altName":"Las Vegas","notes":"Capacity: 4,500","address":"4455 Paradise Rd","city":"Las Vegas","state":"NV","postal":"89169","country":"USA","phoneNbr":"702-693-5000","venueURL":"https://virginhotelslv.com/venue/the-theater/","setlistURL":"http://www.everydaycompanion.com/setlists/20220312a.asp","seatingURL":"https://maps.seatics.com/TheTheaterAtVirginHotels_LittleBigTown_2021-12-03_2021-09-30_1151_06162021_124930_SVGC_tn.png","lat":"0.0","lng":"0.0","confidence":"0","placesPhotoReference":"","placesID":"","dateString":"13","monthString":"Jan","title":"Thu, Jan 13","YYYYMMDD":"20220113"},{"showID":9,"dateShow":"2022-03-13T21:00:00","dateDoors":"2022-03-13T20:00:00","dateLots":"","timeZone":"America/Los_Angeles","venue":"The Theater at Virgin Hotels","altName":"Las Vegas","notes":"Capacity: 4,500","address":"4455 Paradise Rd","city":"Las Vegas","state":"NV","postal":"89169","country":"USA","phoneNbr":"702-693-5000","venueURL":"https://virginhotelslv.com/venue/the-theater/","setlistURL":"http://www.everydaycompanion.com/setlists/20220313a.asp","seatingURL":"https://maps.seatics.com/TheTheaterAtVirginHotels_LittleBigTown_2021-12-03_2021-09-30_1151_06162021_124930_SVGC_tn.png","lat":"0.0","lng":"0.0","confidence":"0","placesPhotoReference":"","placesID":"","dateString":"13","monthString":"Jan","title":"Thu, Jan 13","YYYYMMDD":"20220113"},{"showID":10,"dateShow":"2022-03-25T19:00:00","dateDoors":"2022-03-25T17:30:00","dateLots":"","timeZone":"America/New_York","venue":"St. Augustine Amphitheatre","altName":"St. Augustine","notes":"Capacity: 4,092","address":"1340C A1A S","city":"St. Augustine","state":"FL","postal":"32080","country":"USA","phoneNbr":"904-209-0367","venueURL":"https://www.theamp.com/","setlistURL":"http://www.everydaycompanion.com/setlists/20220325a.asp","seatingURL":"https://maps.ticketmaster.com/maps/geometry/3/event/22005B8AB953B819/staticImage?type=png&systemId=HOST","lat":"0.0","lng":"0.0","confidence":"0","placesPhotoReference":"","placesID":"","dateString":"13","monthString":"Jan","title":"Thu, Jan 13","YYYYMMDD":"20220113"},{"showID":11,"dateShow":"2022-03-26T19:00:00","dateDoors":"2022-03-26T17:30:00","dateLots":"","timeZone":"America/New_York","venue":"St. Augustine Amphitheatre","altName":"St. Augustine","notes":"Capacity: 4,092","address":"1340C A1A S","city":"St. Augustine","state":"FL","postal":"32080","country":"USA","phoneNbr":"904-209-0367","venueURL":"https://www.theamp.com/","setlistURL":"http://www.everydaycompanion.com/setlists/20220326a.asp","seatingURL":"https://maps.ticketmaster.com/maps/geometry/3/event/22005B8AB953B819/staticImage?type=png&systemId=HOST","lat":"0.0","lng":"0.0","confidence":"0","placesPhotoReference":"","placesID":"","dateString":"13","monthString":"Jan","title":"Thu, Jan 13","YYYYMMDD":"20220113"},{"showID":12,"dateShow":"2022-03-27T19:00:00","dateDoors":"2022-03-27T17:30:00","dateLots":"","timeZone":"America/New_York","venue":"St. Augustine Amphitheatre","altName":"St. Augustine","notes":"Capacity: 4,092","address":"1340C A1A S","city":"St. Augustine","state":"FL","postal":"32080","country":"USA","phoneNbr":"904-209-0367","venueURL":"https://www.theamp.com/","setlistURL":"http://www.everydaycompanion.com/setlists/20220327a.asp","seatingURL":"https://maps.ticketmaster.com/maps/geometry/3/event/22005B8AB953B819/staticImage?type=png&systemId=HOST","lat":"0.0","lng":"0.0","confidence":"0","placesPhotoReference":"","placesID":"","dateString":"13","monthString":"Jan","title":"Thu, Jan 13","YYYYMMDD":"20220113"}]